stop_id,stop_name,stop_lat,stop_lon,location_type,parent_station,platform_code
9021001000101000,Stavsnäs,59.286405,18.704700,1,,
9021001000102000,Styrsvik,59.280184,18.731426,1,,
9021001000103000,Nämdöböte,59.208731,18.740060,1,,
9021001000104000,Aspö,59.215843,18.753410,1,,
9021001000105000,Idöborg,59.204309,18.757769,1,,
9021001000106000,Östanvik,59.197456,18.739825,1,,
9021001000107000,Kalkberget,59.191628,18.719581,1,,
9021001000108000,Västanvik,59.187559,18.706893,1,,
9021001000109000,Solvik,59.184758,18.700458,1,,
9021001000110000,Orrön,59.180510,18.700629,1,,
9021001000111000,Sand,59.182354,18.692684,1,,
9021001000112000,Bunkvik,59.177537,18.669835,1,,
9021001000113000,Ängsholmen,59.172723,18.655993,1,,
9021001000114000,Uvö,59.175039,18.648745,1,,
9021001000115000,Sunnansund,59.171029,18.639195,1,,
9021001000116000,Mörtö,59.162453,18.628936,1,,
9021001000117000,Mörtö södra,59.152702,18.616282,1,,
9021001000118000,Gatan,59.294298,18.756698,1,,
9021001000119000,Långvik,59.296235,18.771798,1,,
9021001000120000,Västra Skarprunmarn,59.305445,18.814167,1,,
9021001000121000,Hasselkobben,59.314634,18.832800,1,,
9021001000122000,Hasselö,59.316732,18.844855,1,,
9021001000123000,Mjölkkilen,59.302497,18.842859,1,,
9021001000124000,Idholmen,59.298957,18.856785,1,,
9021001000125000,Sandhamn,59.288430,18.915425,1,,
9021001000126000,Harö,59.339006,18.900275,1,,
9021001000127000,Hagede,59.346263,18.899313,1,,
9021001000128000,Koviksudde,59.363190,18.342123,1,,
9021001000129000,Norra Lagnö,59.355297,18.411543,1,,
9021001000130000,Bjurön,59.438969,18.439788,1,,
9021001000131000,Losten,59.454007,18.445501,1,,
9021001000132000,Storkrån,59.454815,18.455064,1,,
9021001000133000,Lilla Saxaren,59.452038,18.472345,1,,
9021001000134000,Stora Saxaren,59.450295,18.483093,1,,
9021001000135000,Bernhardsro,59.427455,18.419286,1,,
9021001000136000,Björknäs,59.427381,18.424517,1,,
9021001000137000,Skäggaudd,59.423780,18.424400,1,,
9021001000138000,Lilla Betsö,59.428674,18.433433,1,,
9021001000139000,Stora Isskär,59.427394,18.440059,1,,
9021001000141000,Halleberg,59.426158,18.460290,1,,
9021001000142000,Skärmaräng,59.420351,18.467756,1,,
9021001000143000,Vårholma,59.424485,18.471848,1,,
9021001000144000,Vårlunda,59.423547,18.483076,1,,
9021001000145000,Sippsö,59.422154,18.493851,1,,
9021001000146000,Lillsved,59.413138,18.496201,1,,
9021001000147000,Södra Grinda,59.407368,18.553045,1,,
9021001000148000,Norra Grinda,59.419060,18.558751,1,,
9021001000149000,Viggsö,59.408636,18.535194,1,,
9021001000150000,Norra Svartsö,59.458824,18.676794,1,,
9021001000151000,Karklö,59.416526,18.629169,1,,
9021001000152000,Trångholmen,59.428811,18.646964,1,,
9021001000153000,Alsvik,59.437840,18.657096,1,,
9021001000154000,Hjälmö,59.419622,18.677776,1,,
9021001000155000,Trädgårdarna,59.431498,18.675837,1,,
9021001000156000,Skälvik,59.443983,18.680635,1,,
9021001000157000,Karlshem,59.434268,18.689478,1,,
9021001000158000,Lådna,59.433793,18.702113,1,,
9021001000159000,Träskökvarn,59.442055,18.699840,1,,
9021001000160000,Gistholmen,59.451998,18.745808,1,,
9021001000161000,Söderboudd,59.455489,18.739767,1,,
9021001000162000,Hägerö,59.397753,18.617341,1,,
9021001000163000,Gällnö,59.390270,18.639452,1,,
9021001000164000,Galtholmen,59.384820,18.690388,1,,
9021001000165000,Gällnönäs,59.396564,18.705750,1,,
9021001000166000,Puttisholmen,59.376757,18.632489,1,,
9021001000167000,Ängsholmen,59.379829,18.650259,1,,
9021001000168000,Sollenkroka,59.373015,18.698721,1,,
9021001000169000,Sollenkrokaö,59.377920,18.707377,1,,
9021001000170000,Arbodaö,59.377496,18.729475,1,,
9021001000171000,Ytterö,59.382526,18.772086,1,,
9021001000172000,Träskö-Gåln,59.384572,18.773441,1,,
9021001000173000,Norra Stavsudda,59.404277,18.779955,1,,
9021001000174000,Södra Träskö,59.382838,18.790763,1,,
9021001000175000,Södra Stavsudda,59.388296,18.810423,1,,
9021001000176000,Korsö,59.381448,18.814041,1,,
9021001000177000,Granholmen,59.372897,18.877465,1,,
9021001000178000,Södermöja,59.403673,18.874321,1,,
9021001000179000,Möjaström,59.404028,18.874767,1,,
9021001000180000,Berg,59.406057,18.888453,1,,
9021001000181000,Löka,59.410374,18.895914,1,,
9021001000182000,Ramsmora,59.423873,18.909570,1,,
9021001000183000,Långvik,59.442372,18.920746,1,,
9021001000184000,Dragedet,59.443183,18.886435,1,,
9021001000185000,Stora Kalholmen,59.455165,18.822581,1,,
9021001000187000,Boda brygga,59.369986,18.605065,1,,
9021001000188000,Karsholm,59.394414,18.780935,1,,
9021001000193000,Söderholm,59.386984,18.807033,1,,
9021001000195000,Korsö,59.287001,18.946960,1,,
9021001000201000,Årsta brygga,59.082054,18.173464,1,,
9021001000202000,Gruvbryggan,58.970418,18.325113,1,,
9021001000203000,Näsudden,58.961706,18.293267,1,,
9021001000204000,Spränga,58.957605,18.294406,1,,
9021001000206000,Ängsö,59.194982,18.442482,1,,
9021001000207000,Gränö,59.191378,18.454645,1,,
9021001000208000,Kalvholmen,59.188880,18.452273,1,,
9021001000209000,Dalarö,59.129570,18.405221,1,,
9021001000210000,Jutholmen,59.125238,18.409336,1,,
9021001000211000,Aspö,59.117134,18.411589,1,,
9021001000212000,Segholmen,59.113649,18.412886,1,,
9021001000213000,Dalarö skans,59.113292,18.391527,1,,
9021001000214000,Fåglarö,59.103924,18.398848,1,,
9021001000215000,Hässelmara,59.089144,18.415409,1,,
9021001000216000,Skinnardal,59.100149,18.425198,1,,
9021001000217000,Brevik,59.072836,18.375896,1,,
9021001000218000,Lättinge,59.044851,18.365256,1,,
9021001000219000,Björkösund,59.049089,18.341458,1,,
9021001000220000,Nåttarö,58.881221,18.110596,1,,
9021001000221000,Aspö,58.901646,18.147429,1,,
9021001000222000,Norrö,58.905095,18.149935,1,,
9021001000223000,Rånö,58.919287,18.177935,1,,
9021001000224000,Ålö,58.919979,18.191796,1,,
9021001000225000,Kymmendö,59.111221,18.489578,1,,
9021001000226000,Ornöboda,59.111907,18.483775,1,,
9021001000227000,Söderviken,59.102522,18.483818,1,,
9021001000228000,Fiversätraö,59.070830,18.516739,1,,
9021001000229000,Mefjärd,59.061974,18.480212,1,,
9021001000230000,Ornö kyrka,59.052103,18.433100,1,,
9021001000231000,Fjärdlång,59.035713,18.511387,1,,
9021001000232000,Rosenön,59.164089,18.468483,1,,
9021001000233000,Huvudskär,58.963049,18.565575,1,,
9021001000237000,Rögrund,59.165812,18.584405,1,,
9021001000257000,Edesön,59.150190,18.456787,1,,
9021001000269000,Ekholmen,59.167007,18.662630,1,,
9021001000277000,Telegrafholmen,59.292496,18.913694,1,,
9021001000278000,Björkvik,59.220757,18.539937,1,,
9021001000279000,Eknö,59.305654,18.851039,1,,
9021001000301000,Strömkajen,59.328817,18.076009,1,,
9021001000304000,Ropsten,59.358321,18.106337,1,,
9021001000305000,Skeppsbron,59.326665,18.075504,1,,
9021001000306000,Slussen,59.323290,18.076104,1,,
9021001000307000,Strandvägen,59.331144,18.078871,1,,
9021001000308000,Barnängsbryggan,59.308045,18.097512,1,,
9021001000309000,Lumabryggan,59.305791,18.099328,1,,
9021001000312000,Allmänna gränd,59.324080,18.094617,1,,
9021001000313000,Henriksdals brygga,59.309294,18.101281,1,,
9021001000314000,Skeppsholmen,59.325049,18.089006,1,,
9021001000315000,Masthamnen,59.315741,18.106791,1,,
9021001000316000,Skeppsholmen västra,59.324475,18.081126,1,,
9021001000318000,Fotografiska,59.318090,18.085874,1,,
9021001000401000,Vaxholm,59.401845,18.355433,1,,
9021001000402000,Granholmen,59.376225,18.308534,1,,
9021001000403000,Edlunda,59.375118,18.318500,1,,
9021001000404000,Furuholmen,59.372117,18.336064,1,,
9021001000405000,Kalvholmen,59.377850,18.365126,1,,
9021001000406000,Risberga,59.370186,18.362605,1,,
9021001000407000,Vasholmen,59.384103,18.343549,1,,
9021001000408000,Höganäs,59.386986,18.342600,1,,
9021001000409000,Stora Ekholmen,59.393578,18.345223,1,,
9021001000410000,Fredriksberg,59.400281,18.333706,1,,
9021001000411000,Kastellet,59.402390,18.359735,1,,
9021001000413000,Rindöbaden,59.397146,18.376258,1,,
9021001000414000,Norra Tynningö,59.392885,18.376274,1,,
9021001000415000,Höganäs torg,59.385253,18.354126,1,,
9021001000416000,Ljungbergsgården,59.366579,18.405951,1,,
9021001000417000,Östra Tynningö,59.363124,18.420374,1,,
9021001000418000,Norehill,59.383946,18.393812,1,,
9021001000419000,Ramsö,59.390285,18.398869,1,,
9021001000420000,Vegabryggan,59.391366,18.406695,1,,
9021001000421000,Ramsöberg,59.384360,18.418887,1,,
9021001000422000,Knutsholmen,59.376485,18.435003,1,,
9021001000423000,Hästholmen,59.365163,18.441041,1,,
9021001000424000,Skogsö södra,59.368334,18.442454,1,,
9021001000425000,Skogsö udde,59.366367,18.433891,1,,
9021001000426000,Stegesund,59.413258,18.367672,1,,
9021001000427000,Skarpöborg,59.414003,18.371554,1,,
9021001000428000,Edholma,59.412406,18.352248,1,,
9021001000429000,Grenadjärbryggan,59.390903,18.433926,1,,
9021001000430000,Ytterby brygga,59.425121,18.355481,1,,
9021001000431000,Vikingsborg,59.421913,18.360366,1,,
9021001000432000,Karlsudd,59.381759,18.331921,1,,
9021001000433000,Rindö västra,59.403190,18.365314,1,,
9021001000434000,Storholmen södra,59.393533,18.134353,1,,
9021001000435000,Storholmen östra,59.396904,18.144391,1,,
9021001000436000,Frösvik,59.403250,18.154409,1,,
9021001000437000,Storholmen norra,59.398637,18.135511,1,,
9021001000438000,Åkershov,59.374556,18.411630,1,,
9021001000439000,Ljungbergsgårdens vägskäl,59.366009,18.421177,1,,
9021001000440000,Orrlunda,59.376894,18.406809,1,,
9021001000501000,Själbottna,59.565997,18.784330,1,,
9021001000502000,Vagnsunda,59.575592,18.784505,1,,
9021001000503000,Brokholmen,59.588476,18.832295,1,,
9021001000504000,Glyxnäs,59.591454,18.855169,1,,
9021001000505000,Alsvik,59.599711,18.851061,1,,
9021001000506000,Bruket,59.604160,18.867836,1,,
9021001000507000,Yxlövik,59.615476,18.870664,1,,
9021001000508000,Almvik,59.621302,18.890661,1,,
9021001000509000,Duvnäs,59.627826,18.893174,1,,
9021001000510000,Kolsvik,59.634484,18.899929,1,,
9021001000511000,Stämmarsund,59.636437,18.920910,1,,
9021001000512000,Bergshyddan,59.645888,18.928355,1,,
9021001000513000,Norrsund,59.648972,18.938054,1,,
9021001000514000,Yxlö,59.632163,18.863907,1,,
9021001000515000,Köpmanholm,59.659791,18.930001,1,,
9021001000516000,Lilla Gräskö,59.687659,19.023087,1,,
9021001000520000,Solö,59.674408,18.764996,1,,
9021001000521000,Hemmarö,59.648134,18.795772,1,,
9021001000522000,Söderäng,59.640061,18.790510,1,,
9021001000523000,Högmarsö,59.646179,18.817590,1,,
9021001000524000,Fårgångsö,59.642960,18.817614,1,,
9021001000525000,Furusund,59.658238,18.916405,1,,
9021001000526000,Norröra,59.642565,19.020664,1,,
9021001000527000,Söderöra,59.627374,19.011762,1,,
9021001000528000,Svartlöga,59.580131,19.066981,1,,
9021001000529000,Rödlöga,59.594166,19.172317,1,,
9021001000530000,Gräskö,59.684724,19.017063,1,,
9021001000531000,Marö,59.701294,19.055591,1,,
9021001000532000,Kapellskär,59.718037,19.070614,1,,
9021001000533000,Tjockö Ångbåtsbrygga,59.745758,19.112042,1,,
9021001000534000,Lidö,59.770132,19.079210,1,,
9021001000535000,Tyvö,59.772010,19.125009,1,,
9021001000536000,Idö,59.799430,19.115643,1,,
9021001000537000,Östersjö,59.833754,19.077659,1,,
9021001000538000,Granö,59.836304,19.088779,1,,
9021001000539000,Arholma,59.851243,19.107663,1,,
9021001000540000,Simpnäs,59.869861,19.077366,1,,
9021001000541000,Räfsnäs,59.752077,19.080409,1,,
9021001000542000,Rovholmen,59.755755,19.126805,1,,
9021001000543000,Gisslingö,59.772958,19.154527,1,,
9021001000544000,Arholma Nord,59.862004,19.123758,1,,
9021001000545000,Fejan,59.745546,19.163233,1,,
9021001000546000,Tjockö norra,59.755016,19.120737,1,,
9021001000550000,Nationalparken Ängsö,59.616401,18.761865,1,,
9021001000551000,Lågarö,59.774871,18.925533,1,,
9021001000552000,Gräddö,59.767775,19.032112,1,,
9021001000553000,Håknäs,59.780113,18.951595,1,,
9021001000554000,Norrtälje hamn,59.757867,18.711217,1,,
9021001000555000,Östernäs,59.702238,18.994080,1,,
9021001000556000,Bromskär,59.626157,18.988311,1,,
9021001000567000,Enskär,59.762175,19.133526,1,,
9021001000569000,Krokholmen,59.812253,19.109247,1,,
9021001000570000,Söderarm,59.751283,19.405010,1,,
9021001000601000,Nynäshamn,58.900794,17.952821,1,,
9021001000602000,Ankarudden,58.801237,17.835778,1,,
9021001000603000,Krokskär,58.786423,17.844539,1,,
9021001000604000,Landsort,58.744536,17.864540,1,,
9021001000702000,Tyresö,59.229753,18.360564,1,,
9021001000801000,Lervik,59.452153,18.384817,1,,
9021001000802000,Elgö,59.456134,18.404900,1,,
9021001000803000,Mjölkö,59.465148,18.418328,1,,
9021001000804000,Ekholmen,59.469809,18.420848,1,,
9021001000805000,Norra Betsö,59.470650,18.443912,1,,
9021001000806000,Seglarö,59.483106,18.467392,1,,
9021001000807000,Fåglarö,59.475513,18.464952,1,,
9021001000808000,Stora Timrarö,59.496801,18.484724,1,,
9021001000809000,Grundvik,59.460575,18.519715,1,,
9021001000810000,Linanäs,59.472578,18.511885,1,,
9021001000811000,Öran,59.481915,18.510276,1,,
9021001000812000,Laggarsvik,59.496129,18.523508,1,,
9021001000813000,Skuggan,59.496473,18.537721,1,,
9021001000814000,Väsbystrand,59.499349,18.550963,1,,
9021001000815000,Staveström,59.430335,18.578990,1,,
9021001000816000,Örsö,59.431891,18.586159,1,,
9021001000817000,Storängen,59.441324,18.584688,1,,
9021001000818000,Strömsholm,59.443895,18.588931,1,,
9021001000819000,Stensvik,59.448690,18.578301,1,,
9021001000820000,Hummelmora,59.455570,18.599069,1,,
9021001000821000,Edö,59.466696,18.632893,1,,
9021001000822000,Edö ö,59.465289,18.667129,1,,
9021001000823000,Norra Ingmarsö,59.476999,18.749215,1,,
9021001000824000,Finnhamn,59.482756,18.826534,1,,
9021001000825000,Husarö,59.502239,18.844197,1,,
9021001000826000,Brottö,59.465743,18.727584,1,,
9021001000827000,Södra Ingmarsö,59.465459,18.750991,1,,
9021001000828000,Nässlingen,59.485591,18.681668,1,,
9021001000829000,Åsättra brygga,59.504730,18.637958,1,,
9021001000830000,Äpplarö,59.485740,18.725195,1,,
9021001000831000,Ålön,59.516958,18.544662,1,,
9021001000832000,Siaröfortet,59.555778,18.623033,1,,
9021001000833000,Vettersö,59.563422,18.707887,1,,
9021001000835000,Koholmen,59.502712,18.488216,1,,
9021001000836000,Björnshuvud,59.531231,18.538341,1,,
9021001000838000,Gärdsvik,59.548925,18.659956,1,,
9021001000839000,Norra Ekskäret,59.494542,18.806814,1,,
9021001000841000,Björnholmen,59.458749,18.638749,1,,
9021001000842000,Östanå färjeläge,59.548181,18.575423,1,,
9021001000844000,Stora Timrarö östra,59.497173,18.500389,1,,
9021001000851000,Särsö,59.491583,18.845229,1,,
9021001000901000,Saltsjöbaden,59.278992,18.316245,1,,
9021001000902000,Nacka strand,59.318014,18.156875,1,,
9021001000903000,Hasseludden,59.348563,18.244530,1,,
9021001000904000,Riset,59.359991,18.285547,1,,
9021001000905000,Tegelön,59.363562,18.322300,1,,
9021001000906000,Nyckelviken,59.324878,18.193068,1,,
9021001000907000,Telegrafberget,59.341396,18.225883,1,,
9021001000908000,Kvarnholmen,59.317589,18.136513,1,,
9021001000909000,Boo,59.307043,18.292139,1,,
9021001000913000,Tollare,59.300156,18.234890,1,,
9021001000948000,Storholmen östra,59.396897,18.144338,1,,
9021001000949000,Storholmen södra,59.393514,18.134404,1,,
9021001000950000,Storholmen norra,59.398614,18.135351,1,,
9021001000951000,Klippudden,59.345873,18.223669,1,,
9021001000952000,Fjäderholmarna,59.327533,18.179319,1,,
9021001000953000,Sticklinge brygga,59.390328,18.109462,1,,
9021001000955000,Gåshaga brygga,59.357142,18.235192,1,,
9021001000956000,Mor Annas brygga,59.389758,18.137774,1,,
9021001000958000,Fjäderholmarna västra,59.329469,18.175924,1,,
9021001000961000,Tranholmen,59.376445,18.092023,1,,
9021001000962000,Ekudden,59.390015,18.090882,1,,
9021001000980000,Möjaström,59.403935,18.874748,1,,
9021001000981000,Berg,59.406162,18.888868,1,,
9021001000982000,Löka,59.410327,18.896207,1,,
9021001000983000,Långvik,59.442345,18.920982,1,,
9021001000985000,Höganäs,59.386946,18.342388,1,,
9021001000986000,Hässelmara,59.089310,18.415768,1,,
9021001000987000,Lättinge,59.044677,18.365165,1,,
9021001000988000,Ramsmora,59.423924,18.909558,1,,
9021001001011000,Slussen,59.319534,18.071617,1,,
9021001001021000,Gamla stan,59.323286,18.067171,1,,
9021001001051000,T-Centralen,59.331660,18.061694,1,,
9021001001111000,Hötorget,59.335610,18.062963,1,,
9021001001121000,Rådmansgatan,59.340879,18.057907,1,,
9021001001131000,Odenplan,59.342763,18.048653,1,,
9021001001141000,S:t Eriksplan,59.340288,18.037415,1,,
9021001001151000,Fridhemsplan,59.333017,18.031202,1,,
9021001001161000,Thorildsplan,59.331496,18.015855,1,,
9021001001171000,Kristineberg,59.332722,18.003096,1,,
9021001001201000,Alvik,59.333528,17.981303,1,,
9021001001211000,Stora mossen,59.334669,17.965347,1,,
9021001001221000,Abrahamsberg,59.336563,17.953172,1,,
9021001001231000,Brommaplan,59.338284,17.939641,1,,
9021001001241000,Åkeshov,59.342132,17.923430,1,,
9021001001251000,Ängbyplan,59.341951,17.907130,1,,
9021001001261000,Islandstorget,59.345995,17.893245,1,,
9021001001271000,Blackeberg,59.348370,17.882850,1,,
9021001001281000,Råcksta,59.354504,17.881625,1,,
9021001001301000,Vällingby,59.363242,17.872066,1,,
9021001001311000,Johannelund,59.367923,17.858141,1,,
9021001001321000,Hässelby gård,59.367057,17.844341,1,,
9021001001331000,Hässelby strand,59.361742,17.832466,1,,
9021001001511000,Medborgarplatsen,59.314879,18.073436,1,,
9021001001521000,Skanstull,59.308499,18.076103,1,,
9021001001551000,Gullmarsplan,59.299155,18.080985,1,,
9021001001601000,Skärmarbrink,59.295273,18.090351,1,,
9021001001611000,Globen,59.294247,18.078015,1,,
9021001001621000,Enskede gård,59.289028,18.070392,1,,
9021001001631000,Sockenplan,59.283622,18.070893,1,,
9021001001641000,Svedmyra,59.278012,18.067949,1,,
9021001001651000,Stureby,59.274628,18.055645,1,,
9021001001661000,Bandhagen,59.270403,18.049656,1,,
9021001001701000,Högdalen,59.263788,18.042986,1,,
9021001001711000,Rågsved,59.256697,18.028361,1,,
9021001001721000,Hagsätra,59.262172,18.013188,1,,
9021001001811000,Blåsut,59.291166,18.091151,1,,
9021001001821000,Sandsborg,59.285675,18.091932,1,,
9021001001831000,Skogskyrkogården,59.278967,18.095518,1,,
9021001001841000,Tallkrogen,59.271257,18.085545,1,,
9021001001851000,Gubbängen,59.263324,18.082138,1,,
9021001001861000,Hökarängen,59.257926,18.082506,1,,
9021001001871000,Farsta,59.243531,18.093724,1,,
9021001001881000,Farsta strand,59.235453,18.101217,1,,
9021001001911000,Hammarbyhöjden,59.294747,18.104557,1,,
9021001001921000,Björkhagen,59.291651,18.115337,1,,
9021001001931000,Kärrtorp,59.284509,18.114485,1,,
9021001001941000,Bagarmossen,59.276262,18.131215,1,,
9021001001951000,Skarpnäck,59.266970,18.133627,1,,
9021001002101000,Östermalmstorg,59.334968,18.076384,1,,
9021001002111000,Karlaplan,59.338988,18.091998,1,,
9021001002121000,Gärdet,59.345169,18.098981,1,,
9021001002131000,Ropsten,59.357451,18.102720,1,,
9021001002211000,Stadion,59.340803,18.081942,1,,
9021001002221000,Tekniska högskolan,59.346540,18.069324,1,,
9021001002231000,Universitetet,59.365356,18.054894,1,,
9021001002241000,Bergshamra,59.380727,18.037494,1,,
9021001002251000,Danderyds sjukhus,59.390617,18.041797,1,,
9021001002301000,Mörby centrum,59.398261,18.036657,1,,
9021001002511000,Mariatorget,59.317014,18.062117,1,,
9021001002521000,Zinkensdamm,59.317911,18.049608,1,,
9021001002531000,Hornstull,59.316014,18.035410,1,,
9021001002601000,Liljeholmen,59.310688,18.023044,1,,
9021001002611000,Aspudden,59.306362,18.001817,1,,
9021001002621000,Örnsberg,59.305430,17.989131,1,,
9021001002631000,Axelsberg,59.304378,17.975516,1,,
9021001002641000,Mälarhöjden,59.301234,17.957705,1,,
9021001002651000,Bredäng,59.294802,17.936023,1,,
9021001002701000,Sätra,59.285003,17.921296,1,,
9021001002711000,Skärholmen,59.276990,17.907048,1,,
9021001002721000,Vårberg,59.275950,17.890176,1,,
9021001002731000,Vårby gård,59.264365,17.884680,1,,
9021001002741000,Masmo,59.249912,17.881372,1,,
9021001002751000,Fittja,59.247446,17.861027,1,,
9021001002761000,Alby,59.239495,17.845357,1,,
9021001002771000,Hallunda,59.243328,17.825251,1,,
9021001002781000,Norsborg,59.243787,17.815024,1,,
9021001002811000,Midsommarkransen,59.301870,18.011984,1,,
9021001002821000,Telefonplan,59.298252,17.997344,1,,
9021001002831000,Hägerstensåsen,59.295170,17.978441,1,,
9021001002841000,Västertorp,59.291355,17.966709,1,,
9021001002851000,Fruängen,59.286384,17.964940,1,,
9021001003031000,Kungsträdgården,59.330859,18.073588,1,,
9021001003131000,Rådhuset,59.329858,18.045008,1,,
9021001003161000,Stadshagen,59.337449,18.015653,1,,
9021001003201000,Västra skogen,59.348022,18.003402,1,,
9021001003211000,Solna centrum,59.359534,17.997759,1,,
9021001003221000,Näckrosen,59.367311,17.981741,1,,
9021001003231000,Hallonbergen,59.374385,17.969241,1,,
9021001003241000,Kymlinge norrut,59.393469,17.966965,1,,
9021001003242000,Kymlinge söderut,59.393575,17.967415,1,,
9021001003251000,Kista,59.402950,17.942676,1,,
9021001003261000,Husby,59.409713,17.926915,1,,
9021001003271000,Akalla,59.413817,17.917376,1,,
9021001003273000,Akalla uppställning,59.415104,17.914224,1,,
9021001003411000,Huvudsta,59.349727,17.986937,1,,
9021001003421000,Solna strand,59.354669,17.973211,1,,
9021001003431000,Sundbybergs centrum,59.360533,17.973032,1,,
9021001003441000,Duvbo,59.368117,17.962933,1,,
9021001003451000,Rissne,59.375899,17.939694,1,,
9021001003461000,Rinkeby,59.388157,17.928064,1,,
9021001003471000,Tensta,59.394129,17.902487,1,,
9021001003481000,Hjulsta,59.396773,17.888694,1,,
9021001004201000,Alvik,59.333597,17.980402,1,,
9021001004301000,T-Centralen,59.332120,18.062138,1,,
9021001004303000,Kungsträdgården,59.332792,18.070632,1,,
9021001004305000,Nybroplan,59.332729,18.076569,1,,
9021001004307000,Styrmansgatan,59.331583,18.084638,1,,
9021001004309000,Djurgårdsbron,59.331817,18.092360,1,,
9021001004311000,Nordiska museet/Vasamuseet,59.329286,18.095511,1,,
9021001004313000,Liljevalchs/Gröna Lund,59.325243,18.097146,1,,
9021001004315000,Skansen,59.323953,18.100582,1,,
9021001004317000,Djurgårdsskolan,59.323234,18.104952,1,,
9021001004318000,Bellmansro,59.324006,18.110548,1,,
9021001004319000,Waldemarsudde,59.322644,18.111387,1,,
9021001004320000,Skansenslingan,59.323995,18.101463,1,,
9021001004321000,Norrmalmstorgsslingan,59.333384,18.073519,1,,
9021001004411000,Alléparken,59.328999,17.974248,1,,
9021001004421000,Klövervägen,59.324991,17.973869,1,,
9021001004431000,Smedslätten,59.320897,17.964376,1,,
9021001004441000,Ålstensgatan,59.323438,17.956482,1,,
9021001004451000,Ålstens gård,59.320601,17.952095,1,,
9021001004461000,Höglandstorget,59.323314,17.940038,1,,
9021001004471000,Olovslund,59.327904,17.935239,1,,
9021001004481000,Nockeby torg,59.328991,17.928322,1,,
9021001004491000,Nockeby,59.328740,17.918568,1,,
9021001004501000,Gullmarsplan,59.299492,18.080314,1,,
9021001004503000,Globen,59.294124,18.076611,1,,
9021001004505000,Linde,59.293263,18.063634,1,,
9021001004507000,Valla torg,59.295011,18.048441,1,,
9021001004509000,Årstafältet,59.296342,18.039716,1,,
9021001004511000,Årstaberg,59.299248,18.029705,1,,
9021001004513000,Årstadal,59.305825,18.025525,1,,
9021001004515000,Liljeholmen,59.310605,18.024809,1,,
9021001004517000,Trekanten,59.314066,18.018307,1,,
9021001004519000,Gröndal,59.315924,18.011222,1,,
9021001004521000,Stora Essingen,59.324775,17.992990,1,,
9021001004523000,Alviks strand,59.328900,17.982026,1,,
9021001004525000,Alvik,59.333591,17.980191,1,,
9021001004527000,Mårtensdal,59.302675,18.088033,1,,
9021001004529000,Luma,59.304172,18.095878,1,,
9021001004531000,Sickla kaj,59.302769,18.103624,1,,
9021001004533000,Sickla udde,59.306252,18.108776,1,,
9021001004535000,Johannesfred,59.342796,17.969780,1,,
9021001004537000,Norra Ulvsunda,59.349889,17.962391,1,,
9021001004539000,Karlsbodavägen,59.355981,17.961341,1,,
9021001004541000,Bällsta bro,59.360680,17.962966,1,,
9021001004543000,Sundbybergs centrum,59.360839,17.970407,1,,
9021001004545000,Solna Business Park,59.359507,17.979549,1,,
9021001004547000,Solna centrum,59.361356,17.996283,1,,
9021001004549000,Solna station,59.363754,18.008219,1,,
9021001004551000,Gröndal,59.315259,18.006760,1,,
9021001004561000,Bromma Blocks,59.353917,17.956709,1,,
9021001004563000,Bromma flygplats,59.356889,17.946664,1,,
9021001004701000,Waldemarsudde,59.322596,18.111033,1,,
9021001004702000,Norrmalmstorg,59.333437,18.073540,1,,
9021001004703000,Bellmansro,59.324162,18.110857,1,,
9021001004705000,Skansenslingan,59.324179,18.102231,1,,
9021001005001000,Arlanda central,59.649383,17.928518,1,,
9021001005003000,Tierp,60.343827,17.525416,1,,
9021001005004000,Skutskär,60.619208,17.419395,1,,
9021001005005000,Gävle,60.679478,17.151890,1,,
9021001005006000,Knivsta,59.726369,17.786740,1,,
9021001005007000,Uppsala C,59.858521,17.648593,1,,
9021001005011000,Stockholms central,59.329520,18.057845,1,,
9021001005021000,Karlberg,59.339561,18.029285,1,,
9021001005031000,Solna,59.366504,18.009571,1,,
9021001005041000,Ulriksdal,59.379900,18.001071,1,,
9021001005051000,Helenelund,59.409402,17.962018,1,,
9021001005061000,Sollentuna,59.428009,17.948838,1,,
9021001005071000,Häggvik,59.443548,17.933176,1,,
9021001005081000,Norrviken,59.457997,17.924576,1,,
9021001005091000,Rotebro,59.476565,17.914091,1,,
9021001005101000,Upplands Väsby,59.521641,17.899546,1,,
9021001005111000,Rosersberg,59.583033,17.880233,1,,
9021001005121000,Märsta,59.627523,17.861107,1,,
9021001005131000,Stockholms södra,59.313578,18.061920,1,,
9021001005135000,Årstaberg,59.299684,18.028338,1,,
9021001005141000,Älvsjö,59.278549,18.010451,1,,
9021001005151000,Stuvsta,59.253279,17.995850,1,,
9021001005161000,Huddinge,59.235823,17.977971,1,,
9021001005171000,Flemingsberg,59.219028,17.947176,1,,
9021001005181000,Tullinge,59.205408,17.903804,1,,
9021001005191000,Tumba,59.199650,17.837078,1,,
9021001005201000,Rönninge,59.193594,17.751510,1,,
9021001005211000,Östertälje,59.183788,17.661441,1,,
9021001005221000,Södertälje hamn,59.179044,17.646290,1,,
9021001005231000,Södertälje centrum,59.192067,17.627291,1,,
9021001005241000,Södertälje syd,59.162354,17.643625,1,,
9021001005251000,Järna,59.093459,17.567198,1,,
9021001005261000,Mölnbo,59.048341,17.422739,1,,
9021001005271000,Gnesta,59.048548,17.313128,1,,
9021001005300000,Stockholms central,59.331537,18.054943,1,,
9021001005310000,Stockholm City,59.331139,18.059447,1,,
9021001005320000,Stockholm Odenplan,59.343213,18.045720,1,,
9021001005901000,Cityterminalen,59.332161,18.054308,1,,
9021001006031000,Sundbyberg,59.360944,17.971237,1,,
9021001006041000,Spånga,59.383847,17.897736,1,,
9021001006051000,Barkarby,59.404576,17.866036,1,,
9021001006061000,Jakobsberg,59.423702,17.832965,1,,
9021001006071000,Kallhäll,59.452387,17.807122,1,,
9021001006081000,Kungsängen,59.478001,17.752902,1,,
9021001006091000,Bro,59.512244,17.633251,1,,
9021001006101000,Bålsta,59.567939,17.535646,1,,
9021001006121000,Farsta strand,59.236656,18.101952,1,,
9021001006131000,Trångsund,59.227594,18.131059,1,,
9021001006141000,Skogås,59.218418,18.154231,1,,
9021001006145000,Vega,59.186280,18.135600,1,,
9021001006151000,Handen,59.168195,18.135053,1,,
9021001006161000,Jordbro,59.142316,18.126365,1,,
9021001006171000,Västerhaninge,59.122930,18.102915,1,,
9021001006181000,Krigslida,59.109076,18.065960,1,,
9021001006191000,Tungelsta,59.102499,18.045256,1,,
9021001006201000,Hemfosa,59.068894,17.976549,1,,
9021001006211000,Segersäng,59.028296,17.926213,1,,
9021001006221000,Ösmo,58.984545,17.902622,1,,
9021001006231000,Nynäsgård,58.913462,17.942513,1,,
9021001006241000,Gröndalsviken,58.898924,17.931880,1,,
9021001006251000,Nynäshamn,58.901227,17.951323,1,,
9021001006261000,Nynäshamns färjeterminal,58.904684,17.955636,1,,
9021001006372000,Gnesta station,59.046197,17.322636,1,,
9021001006601000,Stockholms östra,59.346800,18.070054,1,,
9021001006651000,Djursholms Ösby,59.398706,18.059240,1,,
9021001006661000,Bråvallavägen,59.405588,18.060602,1,,
9021001006741000,Rydbo,59.465407,18.185861,1,,
9021001006761000,Åkers Runö,59.480647,18.270416,1,,
9021001006781000,Tunagård,59.468753,18.307305,1,,
9021001006791000,Österskär,59.460755,18.311586,1,,
9021001006851000,Bällsta,59.523716,18.071743,1,,
9021001006881000,Lindholmen,59.584162,18.109344,1,,
9021001006901000,Ekskogen,59.638967,18.226997,1,,
9021001006911000,Kårsta,59.656756,18.267532,1,,
9021001006921000,Vendevägen,59.399947,18.067978,1,,
9021001006941000,Altorp,59.410938,18.072904,1,,
9021001006971000,Näsbypark,59.430306,18.095616,1,,
9021001007001000,Täby centrum,59.444335,18.074630,1,,
9021001007011000,Galoppfältet,59.446904,18.085160,1,,
9021001007021000,Viggbyholm,59.449255,18.104215,1,,
9021001007031000,Hägernäs,59.450916,18.125228,1,,
9021001007035000,Arninge,59.458864,18.141348,1,,
9021001007051000,Täljö,59.473224,18.235397,1,,
9021001007071000,Åkersberga,59.479001,18.299775,1,,
9021001007111000,Universitetet,59.365088,18.050983,1,,
9021001007131000,Stocksund,59.385103,18.043924,1,,
9021001007141000,Mörby,59.392343,18.047453,1,,
9021001007171000,Djursholms Ekeby,59.412892,18.057667,1,,
9021001007181000,Enebyberg,59.425888,18.051219,1,,
9021001007191000,Roslags Näsby,59.435218,18.057396,1,,
9021001007221000,Östberga,59.404227,18.073953,1,,
9021001007241000,Lahäll,59.424205,18.074266,1,,
9021001007251000,Näsby allé,59.427396,18.085667,1,,
9021001007301000,Tibble,59.442138,18.062573,1,,
9021001007311000,Ensta,59.451945,18.063619,1,,
9021001007321000,Visinge,59.462733,18.063211,1,,
9021001007331000,Täby kyrkby,59.492990,18.066220,1,,
9021001007341000,Kragstalund,59.510263,18.075736,1,,
9021001007361000,Vallentuna,59.533752,18.079842,1,,
9021001007371000,Ormsta,59.546354,18.079666,1,,
9021001007381000,Molnby,59.557211,18.084958,1,,
9021001007401000,Frösunda,59.624230,18.170483,1,,
9021001007498000,Vedalund,59.568242,18.098429,1,,
9021001007501000,Saltsjöbaden,59.279121,18.311442,1,,
9021001007511000,Ringvägen,59.283244,18.302039,1,,
9021001007521000,Neglinge,59.288461,18.291901,1,,
9021001007531000,Igelboda,59.289995,18.275324,1,,
9021001007541000,Fisksätra,59.294180,18.255841,1,,
9021001007551000,Östervik,59.294870,18.235280,1,,
9021001007561000,Saltsjö-Duvnäs,59.300520,18.198606,1,,
9021001007571000,Storängen,59.305642,18.177787,1,,
9021001007581000,Lillängen,59.305216,18.160942,1,,
9021001007591000,Saltsjö-Järla,59.306820,18.149444,1,,
9021001007601000,Nacka,59.306514,18.129938,1,,
9021001007611000,Sickla,59.306872,18.121043,1,,
9021001007615000,Sickla,59.306715,18.115414,1,,
9021001007621000,Henriksdal,59.312282,18.108262,1,,
9021001007631000,Slussen,59.319778,18.074088,1,,
9021001007641000,Solsidan,59.270912,18.295540,1,,
9021001007651000,Erstaviksbadet,59.272955,18.284968,1,,
9021001007661000,Tattby,59.279040,18.281883,1,,
9021001007671000,Tippen,59.284111,18.277285,1,,
9021001008000000,Nybroplan,59.332060,18.076519,1,,
9021001008001000,Saltsjöqvarn,59.315226,18.111051,1,,
9021001008002000,Finnboda hamn,59.316090,18.124470,1,,
9021001008003000,Nacka strand,59.318396,18.160040,1,,
9021001008004000,Skogshem & Wijk,59.364770,18.228242,1,,
9021001008005000,Lidingö/Dalénum,59.343186,18.152407,1,,
9021001008006000,Blockhusudden,59.320915,18.151398,1,,
9021001008007000,Frihamnen,59.345559,18.131528,1,,
9021001008008000,Kvarnholmen,59.317685,18.137031,1,,
9021001008009000,Allmänna gränd,59.324082,18.094647,1,,
9021001008010000,Kungsholmstorg,59.326309,18.045525,1,,
9021001008011000,Klara Mälarstrand,59.327713,18.058119,1,,
9021001008012000,Riddarholmen,59.324389,18.061882,1,,
9021001008014000,Stadshusbron,59.326800,18.052990,1,,
9021001008015000,Tappström,59.292137,17.813466,1,,
9021001008016000,Söder Mälarstrand,59.321323,18.058142,1,,
9021001008017000,Lilla Essingen,59.323140,18.008688,1,,
9021001008018000,Ekensberg,59.315606,17.988175,1,,
9021001008019000,Kungshättan,59.304687,17.902413,1,,
9021001008020000,Jungfrusund,59.271308,17.846135,1,,
9021001008021000,Riddarholmen,59.324576,18.061599,1,,
9021001008022000,Grenadjärbryggan,59.390972,18.434038,1,,
9021001008023000,Ramsö,59.390437,18.398902,1,,
9021001008024000,Norra Tynningö,59.392973,18.376353,1,,
9021001008025000,Rindö västra,59.403111,18.365253,1,,
9021001008026000,Vaxholm,59.401844,18.355469,1,,
9021001008027000,Fredriksberg,59.400398,18.333699,1,,
9021001008028000,Stora Ekholmen,59.393672,18.345056,1,,
9021001008029000,Höganäs,59.386945,18.342420,1,,
9021001008030000,Vasholmen,59.384178,18.343433,1,,
9021001008031000,Karlsudd,59.381868,18.331879,1,,
9021001008032000,Edlunda,59.375081,18.318532,1,,
9021001008033000,Granholmen,59.376253,18.308502,1,,
9021001008034000,Riset,59.360083,18.285485,1,,
9021001008035000,Gåshaga brygga,59.357077,18.235011,1,,
9021001008036000,Hasseludden,59.348709,18.244439,1,,
9021001008037000,Klippudden,59.345834,18.223770,1,,
9021001008038000,Telegrafberget,59.341426,18.225763,1,,
9021001008039000,Nacka strand,59.318068,18.156862,1,,
9021001008040000,Strömkajen,59.328791,18.076065,1,,
9021001008041000,Ropsten,59.359733,18.099479,1,,
9021001010001000,Stadshagsplan,59.337357,18.021467,1,,
9021001010002000,John Bergs plan,59.336274,18.021944,1,,
9021001010006000,Arbetargatan,59.335212,18.027336,1,,
9021001010008000,S:t Eriksgatan,59.334612,18.031510,1,,
9021001010010000,Frihamnens färjeterminal,59.342563,18.118908,1,,
9021001010012000,Celsiusgatan,59.333756,18.038220,1,,
9021001010014000,Scheelegatan,59.332811,18.045281,1,,
9021001010016000,Kungsbroplan,59.332500,18.048508,1,,
9021001010019000,Cityterminalen,59.333169,18.054476,1,,
9021001010020000,Vasagatan,59.333782,18.056431,1,,
9021001010022000,Ruddammen,59.352214,18.058790,1,,
9021001010024000,Hötorget,59.335414,18.063180,1,,
9021001010026000,Sveavägen,59.335848,18.064884,1,,
9021001010028000,Frihamnen,59.341487,18.117996,1,,
9021001010029000,Norrlandsgatan,59.335975,18.066517,1,,
9021001010031000,Stureplan,59.335791,18.073273,1,,
9021001010032000,Ropsten,59.357618,18.103263,1,,
9021001010033000,Linnégatan,59.338667,18.074908,1,,
9021001010034000,Humlegården,59.340458,18.076382,1,,
9021001010036000,Ruddammsparken,59.351896,18.063403,1,,
9021001010037000,Nybrogatan,59.339579,18.080823,1,,
9021001010040000,Jungfrugatan,59.341931,18.085955,1,,
9021001010041000,Valhallavägen,59.341288,18.090619,1,,
9021001010042000,Skeppargatan,59.338413,18.086505,1,,
9021001010045000,Värtavägen,59.340184,18.093335,1,,
9021001010046000,Hakberget,59.338322,18.101458,1,,
9021001010047000,Oxenstiernsgatan,59.337363,18.102259,1,,
9021001010048000,Filmhuset,59.339268,18.104902,1,,
9021001010051000,Lindarängsvägen,59.339491,18.111648,1,,
9021001010052000,Frihamnsporten,59.340476,18.114183,1,,
9021001010054000,Sehlstedtsgatan,59.342224,18.112046,1,,
9021001010056000,Östhammarsgatan,59.342936,18.110366,1,,
9021001010058000,Rökubbsgatan,59.344844,18.109534,1,,
9021001010060000,Sandhamnsplan,59.346789,18.107442,1,,
9021001010062000,Gärdet,59.348338,18.102368,1,,
9021001010063000,Rigagatan,59.338648,18.098550,1,,
9021001010064000,Tegeluddsvägen,59.349675,18.096275,1,,
9021001010068000,Jägmästargatan,59.351091,18.103099,1,,
9021001010069000,Hangövägen,59.348553,18.111289,1,,
9021001010070000,Mariedal,59.338983,18.017276,1,,
9021001010074000,Kronobergsgatan,59.336674,18.035596,1,,
9021001010076000,Mariedalsvägen,59.339221,18.013357,1,,
9021001010077000,Igeldammsgatan,59.338721,18.023496,1,,
9021001010078000,Fridhemsgatan,59.337187,18.032049,1,,
9021001010079000,Industrigatan,59.338067,18.027075,1,,
9021001010086000,Grev Turegatan,59.338091,18.077015,1,,
9021001010088000,Sibyllegatan,59.336949,18.081508,1,,
9021001010090000,Grevgatan,59.335724,18.086058,1,,
9021001010092000,Historiska museet,59.334677,18.091537,1,,
9021001010094000,Fredrikshovsgatan,59.334117,18.095161,1,,
9021001010096000,Berwaldhallen,59.333104,18.098779,1,,
9021001010098000,Radiohuset,59.335598,18.100213,1,,
9021001010101000,Roslagstull,59.351901,18.054813,1,,
9021001010102000,Norrmalmstorg,59.333223,18.072937,1,,
9021001010103000,Frejgatan,59.347996,18.058853,1,,
9021001010105000,Surbrunnsgatan,59.346248,18.060048,1,,
9021001010107000,Jarlaplan,59.344385,18.061916,1,,
9021001010109000,Stora Skuggan,59.364486,18.070651,1,,
9021001010110000,Tegnérgatan,59.341538,18.064702,1,,
9021001010112000,Eriksbergsgatan,59.339574,18.067584,1,,
9021001010117000,Grev Turegatan,59.335703,18.073357,1,,
9021001010120000,Karl XII:s torg,59.329650,18.073188,1,,
9021001010122000,Slottsbacken,59.326138,18.074919,1,,
9021001010124000,Räntmästartrappan,59.322187,18.074460,1,,
9021001010130000,Medborgarplatsen,59.314270,18.073170,1,,
9021001010132000,Jägargatan,59.310891,18.048266,1,,
9021001010133000,Hallandsgatan,59.310538,18.067089,1,,
9021001010135000,Karlbergs station,59.339509,18.030764,1,,
9021001010136000,Rosenlund,59.309032,18.063090,1,,
9021001010137000,Marmorgatan,59.311592,18.052897,1,,
9021001010144000,Åsötorget,59.311577,18.071925,1,,
9021001010149000,Slussen,59.319466,18.072170,1,,
9021001010151000,Odenplan,59.342901,18.048600,1,,
9021001010152000,Tanto,59.310310,18.045903,1,,
9021001010153000,Storskärsgatan,59.342101,18.097526,1,,
9021001010155000,Kampementsbacken,59.345418,18.101749,1,,
9021001010159000,Döbelnsgatan,59.342561,18.060049,1,,
9021001010161000,Tegnérgatan,59.340601,18.062275,1,,
9021001010162000,Snickarbacken,59.338039,18.067115,1,,
9021001010163000,David Bagares gata,59.337044,18.065449,1,,
9021001010164000,Oxtorgsgatan,59.334748,18.066834,1,,
9021001010166000,Hamngatan,59.332561,18.068394,1,,
9021001010168000,Jakobsgatan,59.330744,18.068310,1,,
9021001010176000,Norrbackagatan,59.340778,18.030714,1,,
9021001010178000,Vikingagatan,59.342318,18.032657,1,,
9021001010179000,Karlbergsvägen,59.342345,18.037190,1,,
9021001010180000,S:t Eriksgatan,59.342391,18.038068,1,,
9021001010182000,Hälsingegatan,59.342796,18.043285,1,,
9021001010183000,Dalagatan,59.341461,18.044852,1,,
9021001010188000,Stadsbiblioteket,59.344149,18.055420,1,,
9021001010191000,Roslagsgatan,59.345304,18.060901,1,,
9021001010192000,Odengatan,59.346510,18.065476,1,,
9021001010193000,Valhallavägen,59.346568,18.066111,1,,
9021001010194000,Östra station,59.345561,18.071506,1,,
9021001010198000,Musikhögskolan,59.342992,18.081781,1,,
9021001010199000,Stadion,59.343789,18.077248,1,,
9021001010202000,Nordiska museet/Vasamuseet,59.329287,18.095476,1,,
9021001010203000,Banérgatan,59.338844,18.096250,1,,
9021001010205000,Karlavägen,59.338898,18.082274,1,,
9021001010207000,Karlaplan,59.337988,18.090892,1,,
9021001010211000,Strandvägen,59.332620,18.093085,1,,
9021001010213000,Hazeliusporten,59.327888,18.096639,1,,
9021001010215000,Liljevalchs/Gröna Lund,59.325057,18.097283,1,,
9021001010217000,Skansen,59.324000,18.101407,1,,
9021001010218000,Liljevalchs/Gröna Lund,59.325439,18.096992,1,,
9021001010224000,Djurgårdsbron,59.331765,18.092427,1,,
9021001010225000,Sveaplan,59.349601,18.049854,1,,
9021001010226000,Norrtullsgatan,59.346705,18.046453,1,,
9021001010227000,Ynglingagatan,59.348984,18.045617,1,,
9021001010230000,Frejgatan,59.344401,18.046794,1,,
9021001010231000,Vanadisvägen,59.345785,18.045405,1,,
9021001010233000,Tredje tvärvägen,59.354043,18.108065,1,,
9021001010237000,Universitetsvägen,59.362215,18.057606,1,,
9021001010238000,Inedalsgatan,59.334388,18.035756,1,,
9021001010240000,Johannes skola,59.350828,18.053528,1,,
9021001010248000,Glasbruksgatan,59.318467,18.079222,1,,
9021001010250000,Tjärhovsplan,59.316520,18.083279,1,,
9021001010251000,Åsögatan,59.313935,18.084515,1,,
9021001010252000,Renstiernas gata,59.315540,18.083854,1,,
9021001010253000,Bondegatan,59.313607,18.082181,1,,
9021001010254000,Ersta sjukhus,59.315401,18.089903,1,,
9021001010255000,Erstagatan,59.313968,18.090446,1,,
9021001010256000,Sofiaskolan,59.313181,18.094296,1,,
9021001010258000,Klippgatan,59.313888,18.087942,1,,
9021001010261000,Skanstull,59.308106,18.076204,1,,
9021001010262000,Moa Martinsons torg,59.339563,18.004969,1,,
9021001010263000,Grindsgatan,59.308445,18.067397,1,,
9021001010266000,Kulturskolans hus,59.334779,18.025094,1,,
9021001010271000,Warfvinges väg,59.337302,18.016399,1,,
9021001010273000,Norra Stationsgatan,59.343042,18.028579,1,,
9021001010274000,Wallingatan,59.336004,18.052901,1,,
9021001010278000,Vasaparken,59.341650,18.045749,1,,
9021001010280000,Sabbatsbergs sjukhus,59.339034,18.048507,1,,
9021001010282000,Tegnérgatan,59.337472,18.050589,1,,
9021001010284000,Norra Bantorget,59.335117,18.054899,1,,
9021001010286000,Kungsgatan,59.333059,18.057155,1,,
9021001010289000,Centralen,59.331140,18.058496,1,,
9021001010291000,T-Centralen,59.332098,18.061943,1,,
9021001010294000,Kungsträdgården,59.332573,18.071077,1,,
9021001010298000,Nybroplan,59.332815,18.077004,1,,
9021001010302000,Styrmansgatan,59.331618,18.084667,1,,
9021001010312000,Djurgårdsskolan,59.323212,18.105082,1,,
9021001010314000,Bellmansro,59.324089,18.111432,1,,
9021001010315000,Karolinska institutet västra,59.346104,18.023185,1,,
9021001010316000,Waldemarsudde,59.322770,18.112380,1,,
9021001010318000,Ryssviksvägen,59.323208,18.109475,1,,
9021001010327000,Nationalmuseum,59.328597,18.077064,1,,
9021001010329000,ArkDes/Moderna museet,59.325173,18.085225,1,,
9021001010332000,Kastellholmsbron,59.324078,18.087535,1,,
9021001010333000,Östasiatiska museet,59.326315,18.080850,1,,
9021001010335000,Norra station,59.348020,18.038459,1,,
9021001010339000,Mariedalsvägen,59.339576,18.015261,1,,
9021001010346000,Karolinska institutet Biomedicum,59.349966,18.024604,1,,
9021001010353000,Gävlegatan,59.346456,18.034398,1,,
9021001010355000,Prostvägen,59.350924,18.026045,1,,
9021001010357000,Karolinska sjukhuset Eugeniavägen,59.347791,18.030239,1,,
9021001010359000,Torsplan,59.345402,18.032885,1,,
9021001010363000,S:t Eriksplan,59.339754,18.038565,1,,
9021001010367000,Fleminggatan,59.335088,18.032996,1,,
9021001010369000,Fridhemsplan,59.332203,18.029195,1,,
9021001010370000,Rödabergsgatan,59.343799,18.035606,1,,
9021001010371000,Kronobergsgatan,59.330931,18.031757,1,,
9021001010373000,Polhemsgatan,59.330080,18.035775,1,,
9021001010375000,Landstingshuset,59.329422,18.040367,1,,
9021001010377000,Kungsholmstorg,59.329282,18.043272,1,,
9021001010379000,Kungsholms kyrka,59.328412,18.047891,1,,
9021001010381000,Stadshuset,59.327983,18.054139,1,,
9021001010383000,Tegelbacken,59.328523,18.062323,1,,
9021001010385000,Riddarhustorget,59.325408,18.066372,1,,
9021001010387000,Mälartorget,59.323234,18.067809,1,,
9021001010389000,Kornhamnstorg,59.322561,18.071067,1,,
9021001010393000,Skånegatan,59.313550,18.084669,1,,
9021001010395000,Gotlandsgatan,59.310554,18.086143,1,,
9021001010397000,Södermannagatan,59.309419,18.082914,1,,
9021001010401000,Eriksdal,59.307665,18.068985,1,,
9021001010403000,Stickelbärsvägen,59.350251,18.064616,1,,
9021001010406000,Södersjukhuset,59.310006,18.057285,1,,
9021001010410000,Björns trädgård,59.315198,18.072885,1,,
9021001010411000,Karolinska vägen,59.350448,18.024619,1,,
9021001010414000,Kungsträdgården,59.331071,18.072719,1,,
9021001010415000,Krukmakargatan,59.317391,18.056913,1,,
9021001010419000,Mynttorget,59.326874,18.068928,1,,
9021001010421000,Mariebergsgatan,59.331581,18.023810,1,,
9021001010425000,Mariedalsvägen,59.338700,18.013915,1,,
9021001010426000,Kellgrensgatan,59.336499,18.018184,1,,
9021001010428000,S:t Görans sjukhus,59.335293,18.020979,1,,
9021001010429000,Strandbergsgatan,59.336750,18.010033,1,,
9021001010432000,Vasabron,59.326678,18.065816,1,,
9021001010433000,Nordenflychtsvägen,59.337604,18.007305,1,,
9021001010435000,Olof Dalins väg,59.336445,18.004148,1,,
9021001010437000,Kristineberg,59.332704,18.004875,1,,
9021001010439000,Fredhäll,59.330045,18.003161,1,,
9021001010445000,Vitalisvägen,59.329555,18.005888,1,,
9021001010447000,Viktor Rydbergs gata,59.328829,18.009242,1,,
9021001010449000,Wivalliusgatan,59.326542,18.013121,1,,
9021001010451000,Lilla Essingen,59.325518,18.008762,1,,
9021001010453000,Primusgatan,59.325723,18.002812,1,,
9021001010455000,Broparken,59.324110,17.994298,1,,
9021001010462000,Fyrverkarbacken,59.327125,18.017601,1,,
9021001010464000,Marieberg,59.328408,18.015540,1,,
9021001010466000,Wennerbergsgatan,59.328513,18.013061,1,,
9021001010471000,Hornsbergshallen,59.335576,18.011726,1,,
9021001010473000,Lindhagensgatan,59.333918,18.015749,1,,
9021001010475000,Lindhagensplan,59.331971,18.018988,1,,
9021001010481000,Eyvind Johnsons gata,59.339818,18.007960,1,,
9021001010489000,Runebergsplan,59.341724,18.070788,1,,
9021001010491000,Ansgariegatan,59.318158,18.044602,1,,
9021001010494000,Münchenbryggeriet,59.321129,18.054740,1,,
9021001010505000,Regeringsgatan,59.335856,18.065324,1,,
9021001010507000,Blekholmsterrassen,59.331076,18.052285,1,,
9021001010511000,Naturhistoriska riksmuseet,59.368052,18.052671,1,,
9021001010521000,Pontonjärgatan,59.329429,18.029973,1,,
9021001010524000,Pontonjärparken,59.328921,18.033691,1,,
9021001010527000,Tullgårdsparken,59.305406,18.081051,1,,
9021001010528000,Fridhemsgatan,59.330163,18.027455,1,,
9021001010529000,Pilgatan,59.328584,18.038959,1,,
9021001010530000,John Ericssonsgatan,59.328689,18.037533,1,,
9021001010533000,Pipersgatan,59.331125,18.047504,1,,
9021001010535000,Bolinders plan,59.330015,18.050573,1,,
9021001010537000,Centralen,59.330737,18.057591,1,,
9021001010541000,Adolf Fredriks kyrka,59.337675,18.061504,1,,
9021001010543000,Rådmansgatan,59.340161,18.059205,1,,
9021001010544000,Tegnérgatan,59.338893,18.060298,1,,
9021001010545000,Handelshögskolan,59.341994,18.057353,1,,
9021001010549000,Frejgatan,59.346322,18.053389,1,,
9021001010553000,Norrtull,59.350082,18.045478,1,,
9021001010555000,Haga södra,59.352174,18.041326,1,,
9021001010557000,Rådhuset,59.330845,18.044102,1,,
9021001010563000,Wenner-Gren center,59.350378,18.048347,1,,
9021001010573000,Renstiernas gata,59.313399,18.084817,1,,
9021001010575000,Roslagstull,59.349397,18.058392,1,,
9021001010580000,Värmdövägen,59.310825,18.106223,1,,
9021001010581000,Observatoriegatan,59.340543,18.050572,1,,
9021001010583000,Fleminggatan,59.332879,18.045313,1,,
9021001010588000,Tegnérgatan,59.338065,18.052114,1,,
9021001010591000,Londonviadukten,59.314746,18.096788,1,,
9021001010592000,Folkungagatan,59.315651,18.092364,1,,
9021001010593000,Danvikstull,59.313951,18.100716,1,,
9021001010595000,Henriksdal,59.311860,18.107593,1,,
9021001010596000,Danviksklippan,59.312527,18.106091,1,,
9021001010598000,Saltsjöqvarn,59.314324,18.111149,1,,
9021001010599000,Henriksdalsviadukten,59.312022,18.109918,1,,
9021001010601000,Körsbärsvägen,59.348386,18.064785,1,,
9021001010605000,Danviken,59.313012,18.108564,1,,
9021001010609000,Danvikshem,59.314211,18.115949,1,,
9021001010611000,Henriksdalsberget,59.311168,18.117222,1,,
9021001010613000,Kvarnholmen,59.315845,18.139710,1,,
9021001010619000,Kanalvägen,59.308272,18.106507,1,,
9021001010627000,Garnisonen,59.336555,18.094827,1,,
9021001010629000,Lindvallsplan,59.316653,18.029041,1,,
9021001010632000,Engelbrektskyrkan,59.343214,18.067494,1,,
9021001010638000,Sigtunagatan,59.342637,18.039468,1,,
9021001010645000,Västerbroplan,59.328185,18.021123,1,,
9021001010647000,Högalidsgatan,59.318497,18.032306,1,,
9021001010649000,Hornstull,59.315667,18.034021,1,,
9021001010651000,Varvsgatan,59.316188,18.040813,1,,
9021001010653000,Ansgariegatan,59.316924,18.046461,1,,
9021001010655000,Zinkensdamm,59.317455,18.049863,1,,
9021001010657000,Rosenlundsgatan,59.317444,18.055400,1,,
9021001010658000,Hornsgatan/Rosenlundsgatan,59.317955,18.054953,1,,
9021001010659000,Wollmar Yxkullsgatan,59.315654,18.056322,1,,
9021001010661000,Södra station,59.311914,18.055082,1,,
9021001010665000,Sickla udde,59.306564,18.109875,1,,
9021001010668000,Bohusgatan,59.306420,18.078002,1,,
9021001010676000,Sickla kaj,59.302712,18.103537,1,,
9021001010678000,Korphoppet(Indr),59.300898,18.094376,1,,
9021001010682000,Luma,59.304183,18.095913,1,,
9021001010684000,Mårtensdal,59.302666,18.088022,1,,
9021001010691000,Nimrodsgatan,59.356252,18.098638,1,,
9021001010692000,Hjorthagens skola,59.354234,18.098516,1,,
9021001010694000,Skogvaktargatan,59.354911,18.100730,1,,
9021001010695000,Jaktgatan,59.355478,18.087516,1,,
9021001010697000,Motalavägen,59.353190,18.096330,1,,
9021001010699000,Artemisgatan,59.353991,18.102328,1,,
9021001010701000,Mariatorget,59.318828,18.062615,1,,
9021001010703000,Krukmakargatan,59.318103,18.060132,1,,
9021001010705000,Wollmar Yxkullsgatan,59.316245,18.061075,1,,
9021001010707000,Fatbursgatan,59.314455,18.061898,1,,
9021001010713000,Storängskroken,59.352919,18.085354,1,,
9021001010714000,Östermalms idrottsplats,59.347303,18.082122,1,,
9021001010715000,Ryttarstadion,59.350391,18.082865,1,,
9021001010716000,Tennisstadion,59.348512,18.081174,1,,
9021001010723000,Storängsvägen,59.351997,18.084306,1,,
9021001010732000,Stenkullavägen,59.318941,17.989664,1,,
9021001010733000,Flottbrovägen,59.322415,17.990168,1,,
9021001010734000,Eremitvägen,59.319154,17.993322,1,,
9021001010735000,Primusgatan nedre,59.325928,18.002921,1,,
9021001010736000,Essingetorget,59.320559,17.988450,1,,
9021001010737000,Luxgatan,59.324688,18.002593,1,,
9021001010739000,Essingeringen,59.323103,17.995755,1,,
9021001010744000,Gammelgårdsvägen,59.319637,17.995181,1,,
9021001010746000,Sällskapsvägen,59.322255,17.995964,1,,
9021001010750000,Frihamnspiren,59.345583,18.128293,1,,
9021001010757000,Luxbacken,59.323780,18.004874,1,,
9021001010759000,Norra Stationsgatan,59.347614,18.040561,1,,
9021001010761000,Vanadisplan,59.344955,18.040055,1,,
9021001010763000,Södra station,59.314143,18.064835,1,,
9021001010765000,Siargatan,59.312922,18.068953,1,,
9021001010768000,Åsögatan,59.312760,18.072981,1,,
9021001010771000,Timmermansgränd,59.312237,18.063645,1,,
9021001010777000,Rosenlundsgatan,59.311610,18.058645,1,,
9021001010783000,Luxparken,59.323690,18.006757,1,,
9021001010788000,Sickla udde,59.306460,18.108137,1,,
9021001010800000,Ulriksdals begravningsplats,59.389723,18.001627,1,,
9021001010801000,Norra station,59.347634,18.039216,1,,
9021001010803000,Frösunda strand,59.369685,18.024417,1,,
9021001010805000,Frösundavik,59.369149,18.029564,1,,
9021001010811000,Gustav Adolfs torg,59.329845,18.068890,1,,
9021001010813000,Nytorgsgatan,59.315019,18.081183,1,,
9021001010814000,Medborgarplatsen,59.314410,18.075011,1,,
9021001010817000,Närkesgatan,59.311558,18.080760,1,,
9021001010821000,Ljusterögatan,59.308435,18.089268,1,,
9021001010824000,Malmgårdsvägen,59.308508,18.092112,1,,
9021001010840000,Riksdagshuset,59.327824,18.070513,1,,
9021001010847000,Erik Dahlbergsgatan,59.348656,18.092675,1,,
9021001010853000,Malmvägen,59.347074,18.112937,1,,
9021001010855000,Värtahamnens färjeterminal,59.351442,18.109476,1,,
9021001010863000,Andra tvärvägen,59.356061,18.106153,1,,
9021001010877000,Mjärdgränd,59.306472,18.089552,1,,
9021001010878000,Nätgränd,59.306056,18.085994,1,,
9021001010881000,Barnängen,59.309764,18.097108,1,,
9021001010882000,Barnängsbryggan,59.308399,18.097268,1,,
9021001010885000,Drevergatan,59.359077,18.093443,1,,
9021001010887000,Bobergsskolan,59.357137,18.092889,1,,
9021001010902000,Frödingsvägen,59.330584,18.003086,1,,
9021001010910000,Cityterminalen,59.331616,18.055317,1,,
9021001010915000,Östermalmstorg,59.336693,18.080685,1,,
9021001010919000,Starrbäcksängen,59.347169,18.087344,1,,
9021001010921000,Erik Dahlbergsgatan,59.341476,18.091005,1,,
9021001010923000,Kallskärsgatan,59.343077,18.092089,1,,
9021001010925000,Tessinparken,59.345200,18.093383,1,,
9021001010928000,Rindögatan,59.347493,18.093315,1,,
9021001010933000,Cityterminalen,59.332644,18.053989,1,,
9021001010949000,Gäddviken,59.312552,18.126155,1,,
9021001010953000,Skinnarviken,59.319710,18.043234,1,,
9021001010955000,Reimersholme,59.317893,18.021037,1,,
9021001010956000,Varvsgatan,59.319345,18.038968,1,,
9021001010957000,Pokalvägen,59.317945,18.022529,1,,
9021001010960000,Anders Reimers väg,59.318503,18.025078,1,,
9021001010961000,Bergsunds strand,59.318408,18.026995,1,,
9021001010963000,Verkstadsgatan,59.317495,18.031259,1,,
9021001010965000,Långholmsgatan,59.318045,18.033482,1,,
9021001010967000,Högalidskyrkan,59.318002,18.039930,1,,
9021001010971000,Ringvägen,59.318189,18.050214,1,,
9021001010976000,Mandelparken,59.311180,18.097956,1,,
9021001010979000,Nackagatan,59.311226,18.096844,1,,
9021001010984000,Tengdahlsgatan,59.310157,18.095367,1,,
9021001010985000,Danvikshemsvägen,59.312959,18.115931,1,,
9021001010987000,Finnboda hamn,59.313216,18.120699,1,,
9021001010991000,Finnbergsvägen,59.313038,18.132449,1,,
9021001010993000,Mjölnarvägen,59.315575,18.132824,1,,
9021001010995000,Tre kronor,59.316917,18.136717,1,,
9021001011002000,Slussen,59.319500,18.072157,1,,
9021001011029000,Ambassaderna,59.333229,18.104169,1,,
9021001011031000,Källhagen,59.333553,18.110966,1,,
9021001011033000,Sjöhistoriska museet,59.333500,18.115234,1,,
9021001011035000,Museiparken,59.333239,18.119074,1,,
9021001011037000,Kaknäs,59.332839,18.128195,1,,
9021001011039000,Djurgårdsbrunn,59.331577,18.131278,1,,
9021001011041000,Edelstams väg,59.325777,18.133652,1,,
9021001011043000,Manilla,59.323714,18.133996,1,,
9021001011046000,Manillavägen,59.323255,18.136590,1,,
9021001011049000,Isbladskärret,59.323208,18.143992,1,,
9021001011051000,Thielska galleriet,59.322877,18.146675,1,,
9021001011053000,Sjöstugan,59.321334,18.149090,1,,
9021001011054000,Blockhusudden,59.321329,18.154361,1,,
9021001011058000,Kaknästornet södra,59.333567,18.124835,1,,
9021001011062000,Kaknästornet,59.334698,18.126423,1,,
9021001011501000,Humlegården,59.337486,18.071709,1,,
9021001011504000,Sergels torg,59.334454,18.064631,1,,
9021001011525000,Hötorget,59.336191,18.061379,1,,
9021001011722000,Bolidenvägen,59.295916,18.069773,1,,
9021001011723000,Slakthuset (Globen),59.293488,18.075214,1,,
9021001011725000,Gullmarsplan,59.298339,18.080996,1,,
9021001012001000,Abrahamsberg,59.336866,17.952804,1,,
9021001012003000,Abrahamsbergsskolan,59.334426,17.949566,1,,
9021001012005000,Gustav III:s väg,59.333280,17.945839,1,,
9021001012007000,Rörläggarvägen,59.331155,17.946215,1,,
9021001012009000,Abrahamsbergsvägen,59.329663,17.946024,1,,
9021001012011000,Grundläggarvägen,59.329093,17.951462,1,,
9021001012013000,Nyängsvägen,59.328665,17.955890,1,,
9021001012015000,Mossens idrottsplats,59.328390,17.963551,1,,
9021001012017000,Västerledstorget,59.328800,17.968629,1,,
9021001012019000,Alléparken,59.328952,17.973557,1,,
9021001012021000,Alviksplan,59.333608,17.973830,1,,
9021001012022000,Alviksvägen,59.331965,17.974998,1,,
9021001012023000,Gamla Bromstensvägen,59.372884,17.919143,1,,
9021001012025000,Alvik,59.332900,17.980741,1,,
9021001012029000,Ulvsundaplan,59.335229,17.969724,1,,
9021001012030000,Grenvägen,59.336046,17.967324,1,,
9021001012032000,Lövåsvägen,59.337481,17.965534,1,,
9021001012033000,Ulvsunda slott,59.340072,17.962535,1,,
9021001012035000,Norrbyvägen,59.345294,17.961026,1,,
9021001012037000,Ekbacksvägen,59.346852,17.963044,1,,
9021001012039000,Ranhammarsvägen,59.348255,17.961084,1,,
9021001012041000,Lintavägen,59.350266,17.959770,1,,
9021001012043000,Ulvsundavägen,59.352049,17.957447,1,,
9021001012045000,Tranebergsplan,59.335182,17.978160,1,,
9021001012046000,Bromma flygplats,59.356178,17.946725,1,,
9021001012047000,Grindstuvägen,59.336426,17.973877,1,,
9021001012049000,Varuhusen,59.354396,17.953701,1,,
9021001012052000,Holbergsgatan,59.343439,17.883896,1,,
9021001012053000,Kiellandsplan,59.344919,17.880495,1,,
9021001012054000,Blackebergs servicehus,59.346920,17.876626,1,,
9021001012055000,Blackebergs skola,59.348235,17.878315,1,,
9021001012056000,Ibsengatan södra,59.348907,17.881230,1,,
9021001012057000,Blackeberg,59.348063,17.883218,1,,
9021001012058000,Blackebergsplan,59.347589,17.883910,1,,
9021001012059000,Ängby kyrka,59.346396,17.889173,1,,
9021001012060000,Bromma sjukhus,59.358166,17.899946,1,,
9021001012061000,Ibsengatan övre,59.350349,17.877421,1,,
9021001012062000,Tunets servicehus,59.357578,17.891028,1,,
9021001012064000,Ibsengatan nedre,59.350263,17.879520,1,,
9021001012071000,Stenen,59.346200,17.878094,1,,
9021001012073000,Ängby torg,59.347145,17.908251,1,,
9021001012076000,Bromma kyrka,59.352758,17.923492,1,,
9021001012077000,Bromma kyrka (närtrafik),59.353940,17.920647,1,,
9021001012078000,Bromma Kyrkskola,59.355517,17.921941,1,,
9021001012087000,Kyrksjölöten,59.352081,17.913137,1,,
9021001012089000,Arvid Mörnes väg övre,59.348698,17.875152,1,,
9021001012090000,Arvid Mörnes väg nedre,59.347854,17.874643,1,,
9021001012091000,Blackebergs grindstuga,59.341064,17.884480,1,,
9021001012093000,Wergelandsgatan,59.349170,17.883040,1,,
9021001012095000,Kanaans väg,59.350555,17.883221,1,,
9021001012097000,Porthansvägen,59.342559,17.886293,1,,
9021001012099000,Alvik södra,59.333814,17.984362,1,,
9021001012103000,Mariehällsskolan,59.362824,17.948094,1,,
9021001012105000,Smältvägen,59.353766,17.959262,1,,
9021001012107000,Karlsbodavägen,59.356413,17.961259,1,,
9021001012109000,Askängsbacken,59.360240,17.958993,1,,
9021001012111000,Mariehäll,59.360612,17.953610,1,,
9021001012113000,Mariehällskyrkan,59.360890,17.948984,1,,
9021001012115000,Solvalla,59.361382,17.940027,1,,
9021001012117000,Skorpvägen,59.364596,17.933192,1,,
9021001012119000,Ankarstocksvägen,59.366224,17.929723,1,,
9021001012121000,Vandrarstigen,59.370470,17.921816,1,,
9021001012125000,Herdevägen,59.375325,17.913655,1,,
9021001012127000,Logvägen,59.377112,17.909217,1,,
9021001012129000,Spångavägen,59.378319,17.905887,1,,
9021001012134000,Spånga kyrka,59.391127,17.913809,1,,
9021001012138000,Spånga station,59.382875,17.898868,1,,
9021001012145000,Annedal,59.361857,17.948731,1,,
9021001012146000,Sedumbacken,59.344760,17.930280,1,,
9021001012150000,Kistavägen,59.402132,17.955832,1,,
9021001012153000,Björkbacksvägen,59.342143,17.967307,1,,
9021001012155000,Johannesfred,59.344971,17.970045,1,,
9021001012157000,Voltavägen,59.347204,17.967152,1,,
9021001012161000,Jan Stenbecks torg,59.403612,17.947621,1,,
9021001012163000,Dr Abrahams väg,59.358260,17.917257,1,,
9021001012165000,Spångavägen,59.356285,17.909995,1,,
9021001012167000,Vassvägen,59.354175,17.906074,1,,
9021001012169000,Runstensplan,59.351321,17.900702,1,,
9021001012171000,Bergslagsvägen,59.347663,17.894745,1,,
9021001012173000,Islandstorget,59.346402,17.893334,1,,
9021001012175000,Huvudsta centrum,59.349913,17.984533,1,,
9021001012177000,Aroseniusvägen,59.342880,17.889287,1,,
9021001012179000,Mälarbacken,59.341236,17.881018,1,,
9021001012181000,Blackebergs gård,59.342196,17.877592,1,,
9021001012182000,Styresman Sanders väg,59.360080,17.906281,1,,
9021001012183000,Hagelstavägen,59.358019,17.948557,1,,
9021001012191000,Kistahöjden,59.411906,17.933056,1,,
9021001012193000,Norgegatan,59.407911,17.937073,1,,
9021001012195000,Kista gård,59.408401,17.940751,1,,
9021001012197000,Kista alléväg,59.407694,17.947151,1,,
9021001012201000,Nockebyhov,59.335137,17.904150,1,,
9021001012204000,Tältgatan,59.333754,17.908719,1,,
9021001012207000,Dalgången,59.332250,17.911786,1,,
9021001012209000,Backskåran,59.331725,17.915628,1,,
9021001012211000,Gubbkärrsvägen,59.331199,17.918188,1,,
9021001012213000,Rånövägen,59.333104,17.924756,1,,
9021001012215000,Åkeshovsvägen,59.335581,17.930225,1,,
9021001012217000,Brommaplan,59.338374,17.937599,1,,
9021001012219000,Riksbyvägen,59.341236,17.945812,1,,
9021001012221000,Hemslöjdsvägen,59.341927,17.949670,1,,
9021001012223000,Jetverkstäderna,59.343525,17.955669,1,,
9021001012227000,Bromma handelscenter,59.354730,17.958532,1,,
9021001012229000,Flygverkstäderna,59.356742,17.954676,1,,
9021001012235000,Daggstigen,59.375067,17.903832,1,,
9021001012237000,Ängbybadet,59.337746,17.900561,1,,
9021001012248000,Avestagatan,59.386876,17.880963,1,,
9021001012252000,Domnarvsgatan,59.391925,17.877144,1,,
9021001012253000,Salixvägen,59.342941,17.933534,1,,
9021001012255000,Kortenslund,59.346798,17.927965,1,,
9021001012257000,Attundavägen,59.350160,17.925465,1,,
9021001012261000,Vultejusvägen,59.354618,17.914006,1,,
9021001012263000,Bällstavägen,59.357044,17.910015,1,,
9021001012267000,Sundbyvägen,59.363282,17.903462,1,,
9021001012269000,Kopparbacken,59.365461,17.901389,1,,
9021001012271000,Flystaslingan,59.368702,17.900621,1,,
9021001012273000,Skogslöparvägen,59.370676,17.901271,1,,
9021001012275000,Spånga Folkets hus,59.373193,17.898866,1,,
9021001012277000,Solhagavägen,59.375924,17.895946,1,,
9021001012279000,Spånga gymnasium,59.379512,17.891979,1,,
9021001012281000,Urban Hjärnes väg,59.350378,17.920733,1,,
9021001012285000,Fagerstagatan,59.388601,17.876958,1,,
9021001012287000,Vadmalsvägen,59.340987,17.938390,1,,
9021001012289000,Kälvestavägen,59.385515,17.886636,1,,
9021001012293000,Finspångsgatan,59.389624,17.878517,1,,
9021001012298000,Godsterminalen,59.389398,17.864605,1,,
9021001012299000,Salagatan,59.384833,17.890827,1,,
9021001012301000,Vällingby,59.363442,17.871393,1,,
9021001012302000,Lunda industri,59.393780,17.876491,1,,
9021001012303000,Fjällnäsgatan,59.364107,17.878843,1,,
9021001012305000,Tornedalsgatan,59.366189,17.883702,1,,
9021001012307000,Täbylundsvägen,59.367249,17.888754,1,,
9021001012308000,Täbylundsvägen,59.366317,17.887474,1,,
9021001012309000,Rättar Vigs väg,59.368642,17.889816,1,,
9021001012311000,Järneksvägen,59.370376,17.888304,1,,
9021001012313000,Nälstaplan,59.372599,17.882625,1,,
9021001012315000,Inspektorsbacken,59.375477,17.882361,1,,
9021001012317000,Västergöksvägen,59.377881,17.877167,1,,
9021001012320000,Östergårdsvägen,59.380308,17.881776,1,,
9021001012321000,Renstigen,59.380433,17.884089,1,,
9021001012325000,Solhöjden,59.383366,17.904023,1,,
9021001012327000,Spånga idrottsplats,59.385510,17.906812,1,,
9021001012329000,Bromstens idrottsplats,59.378255,17.916283,1,,
9021001012330000,Cervins väg,59.384042,17.909901,1,,
9021001012331000,Bromstens gård,59.381570,17.911438,1,,
9021001012338000,Artillerivägen,59.378894,17.940543,1,,
9021001012340000,Ursviksvägen,59.365482,17.957234,1,,
9021001012342000,Fredsgatan,59.364335,17.961137,1,,
9021001012344000,Esplanaden,59.363188,17.965730,1,,
9021001012346000,Sundbybergs station,59.361702,17.972745,1,,
9021001012349000,Persikogatan,59.363978,17.834526,1,,
9021001012351000,Hässelby strand,59.360873,17.831400,1,,
9021001012402000,Margretelundsvägen,59.337275,17.983291,1,,
9021001012403000,Svartviksslingan,59.338271,17.986027,1,,
9021001012404000,Gesundaplan,59.338178,17.981416,1,,
9021001012405000,Kebnekaisevägen,59.338186,17.978199,1,,
9021001012408000,Vidängsvägen,59.339732,17.979177,1,,
9021001012409000,Svartviksvägen,59.335608,17.990110,1,,
9021001012410000,Tranebergsslingan,59.334188,17.989649,1,,
9021001012411000,Bengt Tranas väg,59.336847,17.991191,1,,
9021001012413000,Minneberg,59.339420,17.989809,1,,
9021001012418000,Krällingegränd,59.395456,17.916347,1,,
9021001012427000,Björnflokevägen,59.382801,17.848146,1,,
9021001012429000,Björnmossevägen,59.379507,17.849505,1,,
9021001012431000,Björnbodaskolan,59.378068,17.849603,1,,
9021001012433000,Björnbodavägen,59.377949,17.855467,1,,
9021001012435000,Krossgatan,59.373390,17.857371,1,,
9021001012437000,Siktgatan,59.372532,17.859968,1,,
9021001012439000,Tenorgränd,59.383016,17.859343,1,,
9021001012441000,Sorterargatan,59.370830,17.854270,1,,
9021001012443000,Ångermannagatan,59.363024,17.885118,1,,
9021001012445000,Vällingbyskolan,59.362039,17.880977,1,,
9021001012446000,Koppargården,59.363339,17.891513,1,,
9021001012447000,Bättringsvägen,59.363188,17.890900,1,,
9021001012452000,Härjedalsgatan,59.366766,17.872523,1,,
9021001012454000,Sorselevägen,59.370396,17.867289,1,,
9021001012456000,Vinsta gård,59.371448,17.866814,1,,
9021001012458000,Svandammen,59.380735,17.893203,1,,
9021001012460000,Värsta allé,59.381911,17.896702,1,,
9021001012463000,Råcksta begravningsplats,59.356335,17.870956,1,,
9021001012464000,Utgårdsvägen,59.382849,17.877071,1,,
9021001012466000,Älvkvarnsvägen,59.383294,17.874005,1,,
9021001012468000,Uppgårdsvägen,59.383233,17.870867,1,,
9021001012470000,Basgränd,59.383081,17.865405,1,,
9021001012472000,Jämtlandsgatan,59.358173,17.876775,1,,
9021001012473000,Bergslagsvägen,59.358995,17.870766,1,,
9021001012475000,Grimsta,59.360037,17.868490,1,,
9021001012476000,Tumultgränd,59.384082,17.850370,1,,
9021001012477000,Grimstaskolan,59.361372,17.865827,1,,
9021001012479000,Gulddragargränd,59.363774,17.861519,1,,
9021001012481000,Bergslagsplan,59.365359,17.862625,1,,
9021001012482000,Sörgårdsskolan,59.383583,17.855250,1,,
9021001012484000,Mellangårdsvägen,59.381572,17.879557,1,,
9021001012486000,Skattegårdsvägen,59.379159,17.848745,1,,
9021001012489000,Solleftegatan,59.357305,17.890132,1,,
9021001012496000,Råcksta,59.355069,17.881136,1,,
9021001012500000,Söderberga allé,59.360258,17.893749,1,,
9021001012504000,Armégatan,59.352636,18.003920,1,,
9021001012506000,Solna centrum,59.358631,17.997574,1,,
9021001012511000,Arbrågatan,59.368526,17.869137,1,,
9021001012530000,Hallonbergen,59.375580,17.970154,1,,
9021001012533000,Rissne,59.375703,17.940366,1,,
9021001012535000,Skvadronsbacken,59.373619,17.938799,1,,
9021001012537000,Duvkullavägen,59.371285,17.941640,1,,
9021001012557000,Löfströms allé,59.361175,17.964613,1,,
9021001012563000,Ärvingevägen,59.399571,17.947235,1,,
9021001012568000,Bornholmsgatan,59.396942,17.944331,1,,
9021001012569000,Björnsonsgatan,59.351066,17.886347,1,,
9021001012577000,Traneberg,59.332910,17.986826,1,,
9021001012579000,Stora mossen,59.334519,17.967188,1,,
9021001012583000,Åkeshov,59.342571,17.922846,1,,
9021001012585000,Ängbyplan,59.342567,17.907045,1,,
9021001012587000,Vällingbydepån,59.360050,17.873715,1,,
9021001012589000,Astrakangatan,59.371815,17.844687,1,,
9021001012590000,Hässelby slott,59.366255,17.857987,1,,
9021001012592000,Hässelby gård,59.366458,17.843455,1,,
9021001012598000,Maltesholmsvägen,59.364617,17.837598,1,,
9021001012905000,Slättens gård,59.289701,17.947969,1,,
9021001012907000,Västertorp,59.290433,17.964685,1,,
9021001012909000,Slalomvägen,59.291277,17.975490,1,,
9021001012911000,Hökmossen,59.291460,17.990316,1,,
9021001012912000,Västertorpsmotet,59.288757,17.981209,1,,
9021001012977000,Thorildsplan,59.331660,18.018522,1,,
9021001012980000,Sickla köpkvarter,59.304232,18.128738,1,,
9021001012985000,Bromma sjukhus,59.358194,17.900194,1,,
9021001012989000,Söderberga gårdsväg,59.359709,17.895444,1,,
9021001013001000,Bagarmossen,59.276568,18.133421,1,,
9021001013003000,Stångåvägen,59.276074,18.136820,1,,
9021001013005000,Kolbäcksgränd,59.278708,18.138083,1,,
9021001013007000,Byälvsvägen,59.280550,18.132628,1,,
9021001013009000,Rusthållarvägen,59.280853,18.127671,1,,
9021001013011000,Vikstensvägen,59.281411,18.122313,1,,
9021001013013000,Gränsberget,59.279759,18.116384,1,,
9021001013015000,Statsrådsvägen,59.279761,18.112312,1,,
9021001013017000,Kärrtorpsvägen,59.279598,18.108335,1,,
9021001013019000,Åkervägen,59.279640,18.100863,1,,
9021001013021000,Skogskyrkogården,59.279413,18.095081,1,,
9021001013023000,Källvägen,59.279406,18.086572,1,,
9021001013025000,Stockholmsvägen,59.280605,18.082230,1,,
9021001013027000,Murklevägen,59.281354,18.078116,1,,
9021001013029000,Plantskolevägen,59.279444,18.074740,1,,
9021001013031000,Svedmyra,59.277410,18.069523,1,,
9021001013033000,Postiljonsvägen,59.271982,18.065042,1,,
9021001013035000,Söråkersvägen,59.270231,18.058618,1,,
9021001013037000,Bandhagen,59.270728,18.047748,1,,
9021001013039000,Årdalahöjden,59.270058,18.038363,1,,
9021001013041000,Aspövägen,59.275202,18.033269,1,,
9021001013043000,Ludgovägen,59.276865,18.029728,1,,
9021001013045000,Örby skola,59.275361,18.027103,1,,
9021001013047000,Jädersvägen,59.274355,18.023432,1,,
9021001013049000,Turingevägen,59.273495,18.020385,1,,
9021001013051000,Älvsjö station,59.278775,18.010112,1,,
9021001013053000,Västertorps skola,59.290365,17.969007,1,,
9021001013055000,Kämpetorpsskolan,59.283812,17.994442,1,,
9021001013057000,Nippervägen,59.285265,17.993227,1,,
9021001013059000,Hökmossens gård,59.288970,17.993123,1,,
9021001013061000,Örbyleden,59.268775,18.054794,1,,
9021001013063000,Örnsberg,59.305185,17.988211,1,,
9021001013065000,Telefonplan,59.298165,17.997635,1,,
9021001013067000,Svandammsplan,59.300696,18.003085,1,,
9021001013069000,Kilaberg,59.304748,18.010118,1,,
9021001013071000,Aspudden,59.305608,18.002199,1,,
9021001013073000,Fågeltorget,59.306092,17.993537,1,,
9021001013075000,Erik Segersälls väg,59.307876,17.996945,1,,
9021001013077000,Styrbjörnsvägen,59.309288,18.002410,1,,
9021001013079000,Stora Fågelsången,59.312551,18.009664,1,,
9021001013081000,Helgestavägen,59.273525,18.035484,1,,
9021001013083000,Bäckahagens skola,59.270037,18.041475,1,,
9021001013086000,Gröndal,59.315804,18.010377,1,,
9021001013091000,Laxåvägen,59.272328,18.135854,1,,
9021001013093000,Svartbäcksvägen,59.272770,18.141270,1,,
9021001013095000,Letstigen,59.274900,18.146189,1,,
9021001013097000,Djursjukhuset,59.277371,18.141357,1,,
9021001013105000,Sköntorpsplan,59.298655,18.071409,1,,
9021001013107000,Ymsenvägen,59.298477,18.068474,1,,
9021001013109000,Skagersvägen,59.297830,18.065407,1,,
9021001013111000,Vättersvägen,59.298443,18.060825,1,,
9021001013115000,Tämnarvägen,59.300112,18.056503,1,,
9021001013117000,Årstaskolan,59.299089,18.056387,1,,
9021001013119000,Sköntorp,59.301155,18.052252,1,,
9021001013121000,Årstavägen,59.296224,18.052875,1,,
9021001013122000,Voxnegränd,59.273960,18.134027,1,,
9021001013124000,Årsta gård,59.302116,18.037390,1,,
9021001013126000,Ottsjövägen,59.299857,18.042360,1,,
9021001013128000,Årsta västra,59.300142,18.041908,1,,
9021001013130000,Sjövik,59.307113,18.030289,1,,
9021001013132000,Ingenjörsvägen,59.306965,18.026100,1,,
9021001013135000,Lurstigen,59.255638,18.036227,1,,
9021001013137000,Bäverdammsgränd,59.253828,18.033300,1,,
9021001013139000,Gillerbacken,59.252663,18.028358,1,,
9021001013147000,Älvsjömotet,59.272486,18.015328,1,,
9021001013148000,Stallarholmsvägen,59.263388,18.063844,1,,
9021001013150000,Farsta strandplan,59.235533,18.103521,1,,
9021001013161000,Årsta hamnväg,59.307859,18.025780,1,,
9021001013166000,Sjöviksbacken nedre,59.305550,18.030336,1,,
9021001013169000,Slättåkragränd,59.291313,18.032813,1,,
9021001013171000,Terrassen,59.290443,18.028860,1,,
9021001013173000,Branten,59.287963,18.030501,1,,
9021001013175000,Östberga torg,59.288623,18.033207,1,,
9021001013178000,Julitavägen,59.285783,18.035970,1,,
9021001013179000,Hildebergsvägen,59.302648,18.029637,1,,
9021001013182000,Östbergahöjden västra,59.287305,18.032237,1,,
9021001013183000,Ersta gårdsväg,59.292091,18.036254,1,,
9021001013191000,Frukthandlarvägen,59.295654,18.032955,1,,
9021001013193000,Partihandlarvägen,59.292570,18.031086,1,,
9021001013197000,Skebokvarnsvägen,59.273136,18.044257,1,,
9021001013199000,Årstadal,59.306457,18.027708,1,,
9021001013205000,Nybodahöjden,59.302586,18.021416,1,,
9021001013207000,Sjöviksbacken,59.301924,18.025089,1,,
9021001013211000,Årstafältet,59.296559,18.040186,1,,
9021001013213000,Åmänningevägen,59.298415,18.046646,1,,
9021001013215000,Årsta torg,59.296691,18.051811,1,,
9021001013217000,Bråviksvägen,59.294617,18.056991,1,,
9021001013219000,Linde,59.293712,18.063691,1,,
9021001013224000,Bjursätragatan,59.255164,18.025150,1,,
9021001013235000,Årstaberg,59.299288,18.030227,1,,
9021001013242000,Nybohov,59.309182,18.016790,1,,
9021001013243000,Östbergahöjden,59.288243,18.038132,1,,
9021001013245000,Farsta IP,59.239318,18.084169,1,,
9021001013247000,Nykroppagatan,59.243714,18.083057,1,,
9021001013248000,Forshagagatan,59.245391,18.086254,1,,
9021001013249000,Molkomsbacken,59.244224,18.088262,1,,
9021001013251000,Klubbacken,59.305203,17.963662,1,,
9021001013253000,Selmedalsvägen,59.303878,17.960462,1,,
9021001013255000,Mälarhöjden,59.301280,17.956549,1,,
9021001013257000,Lugntorpsvägen,59.298220,17.956598,1,,
9021001013259000,Gillegatan,59.294203,17.954065,1,,
9021001013261000,Storsvängen,59.291469,17.951133,1,,
9021001013264000,Farsta strand,59.235807,18.102560,1,,
9021001013266000,Farsta centrum,59.243680,18.093789,1,,
9021001013267000,Farsta gymnasium,59.240900,18.089880,1,,
9021001013269000,Värmlandsvägen,59.243543,18.082029,1,,
9021001013272000,Telefonpl(Reserv),59.298691,17.996574,1,,
9021001013273000,Eksätravägen,59.288981,17.943580,1,,
9021001013275000,Frimurarvägen,59.288487,17.938997,1,,
9021001013277000,Slättgårdsskolan,59.291470,17.939808,1,,
9021001013279000,Vita Liljans väg,59.293445,17.940672,1,,
9021001013281000,Bredängsvägen,59.296971,17.942294,1,,
9021001013283000,Mälarhöjdsvägen,59.300250,17.939989,1,,
9021001013285000,Mälarhöjdsbadet,59.299955,17.935691,1,,
9021001013287000,Ålgrytebacken,59.298066,17.931142,1,,
9021001013289000,Minigolfbanan,59.296872,17.926957,1,,
9021001013291000,Stora Sällskapets väg,59.294685,17.926734,1,,
9021001013293000,Sätra idrottsplats,59.289359,17.926795,1,,
9021001013295000,Frösätrabacken,59.289665,17.919452,1,,
9021001013297000,Örnsätrabacken,59.288449,17.914162,1,,
9021001013299000,Alsätravägen,59.285930,17.912293,1,,
9021001013302000,Gillsätragränd,59.283396,17.911834,1,,
9021001013304000,Måsholmstorget,59.272699,17.907266,1,,
9021001013306000,Vårbergsvägen,59.274427,17.903700,1,,
9021001013308000,Skärholmshallen,59.276345,17.902815,1,,
9021001013310000,Skärholmens Gårdsväg,59.280028,17.901023,1,,
9021001013312000,Edö servicehus,59.234854,18.109384,1,,
9021001013313000,Varuvägen,59.272327,18.006117,1,,
9021001013315000,Ormkärrsvägen,59.265647,18.009781,1,,
9021001013316000,Ormkärrsvägen,59.265645,18.009922,1,,
9021001013317000,Älvsjöbadet,59.268394,18.009310,1,,
9021001013319000,Konsumentvägen,59.270150,18.005301,1,,
9021001013321000,Hagsätra,59.261952,18.016219,1,,
9021001013323000,Rågsved,59.256504,18.026627,1,,
9021001013325000,Högdalen,59.263212,18.042298,1,,
9021001013327000,Högdalsdepån,59.259118,18.047678,1,,
9021001013329000,Kvicksundsvägen,59.261085,18.057032,1,,
9021001013330000,Selaövägen,59.262198,18.061534,1,,
9021001013335000,Lerbäcksgränd,59.259577,18.020895,1,,
9021001013338000,Hökarängen,59.258444,18.082814,1,,
9021001013342000,Getfotsvägen,59.261364,18.077622,1,,
9021001013345000,Hardemogatan,59.258424,18.029762,1,,
9021001013347000,Stora Sköndals väg,59.263499,18.123619,1,,
9021001013349000,Porlabacken,59.262434,18.021307,1,,
9021001013350000,Skarpnäck,59.264246,18.131771,1,,
9021001013351000,Frövigatan,59.264611,18.020080,1,,
9021001013352000,Långsjö torg,59.268877,17.970387,1,,
9021001013355000,Vårdkasevägen,59.267106,17.976934,1,,
9021001013357000,Långbrodalsvägen,59.270269,17.976869,1,,
9021001013359000,Tornfalksvägen,59.273788,17.978500,1,,
9021001013361000,Johan Skytteskolan,59.277368,17.981114,1,,
9021001013363000,Fru Marias väg,59.280961,17.985309,1,,
9021001013365000,Spadvägen,59.282817,17.985735,1,,
9021001013367000,Krattvägen,59.285486,17.985906,1,,
9021001013369000,Tröskverksvägen,59.287177,17.984917,1,,
9021001013373000,Brudkronevägen,59.288962,17.989621,1,,
9021001013375000,Klensmedsvägen,59.297157,17.990341,1,,
9021001013379000,Tellusborgsvägen,59.296512,18.000147,1,,
9021001013381000,Västbergavägen,59.294390,18.001999,1,,
9021001013383000,Pliggvägen,59.286726,18.009415,1,,
9021001013385000,Safirgränd,59.291354,17.999542,1,,
9021001013387000,Kristallvägen,59.289566,18.002016,1,,
9021001013389000,Sulvägen,59.287711,18.006609,1,,
9021001013391000,Mejselvägen,59.293728,17.990040,1,,
9021001013393000,Solbergaskolan,59.290550,18.006247,1,,
9021001013395000,Solberga park,59.282631,18.012546,1,,
9021001013397000,Nybodahallen,59.306697,18.019664,1,,
9021001013401000,Fruängen,59.285583,17.965448,1,,
9021001013403000,Fredrika Bremers gata,59.283863,17.969604,1,,
9021001013405000,Vantörsvägen,59.281000,17.963605,1,,
9021001013407000,Segeltorpsgränsen,59.279554,17.961153,1,,
9021001013409000,Herrängsplan,59.277660,17.961911,1,,
9021001013411000,Herrängens gård,59.275484,17.961001,1,,
9021001013413000,Apelvägen,59.272524,17.966779,1,,
9021001013417000,Gullrisstigen,59.267491,17.973466,1,,
9021001013419000,Långsjöplan,59.266647,17.978108,1,,
9021001013421000,Myrvägen,59.267800,17.985415,1,,
9021001013423000,Stockbergsvägen,59.269959,17.986826,1,,
9021001013425000,Bromsvägen,59.273137,17.987099,1,,
9021001013427000,Vivelvägen,59.275869,17.993098,1,,
9021001013429000,Viktoriavägen,59.275529,17.996770,1,,
9021001013431000,Skyttes plan,59.277331,18.001202,1,,
9021001013433000,Älvsjögården,59.280088,18.004652,1,,
9021001013440000,Älvsjövägen,59.278991,18.002906,1,,
9021001013441000,Prästgårdsgärdet,59.280563,18.013746,1,,
9021001013443000,Brännkyrka kyrka,59.282996,18.023529,1,,
9021001013445000,Parkudden,59.283399,18.028645,1,,
9021001013447000,Örby slott,59.281406,18.032016,1,,
9021001013449000,Juliaborg,59.280193,18.034977,1,,
9021001013451000,Tussmötevägen,59.283214,18.044138,1,,
9021001013453000,Toffelbacken,59.282921,18.018971,1,,
9021001013455000,Valla gärde,59.291438,18.056965,1,,
9021001013457000,Spindelvägen,59.274521,17.990156,1,,
9021001013463000,Älvkällevägen,59.290380,18.058244,1,,
9021001013465000,Enskede rackethall,59.286850,18.055899,1,,
9021001013467000,Sockengränd,59.285797,18.049300,1,,
9021001013469000,Bullerholmsgränd,59.281046,17.893830,1,,
9021001013471000,Stångholmsbacken,59.278698,17.886961,1,,
9021001013474000,Vårbergs centrum,59.275864,17.886591,1,,
9021001013476000,Vårbergs sjukhem,59.272433,17.885505,1,,
9021001013478000,Rönnholmsgränd,59.276914,17.878873,1,,
9021001013480000,Våruddsringen,59.277895,17.880817,1,,
9021001013482000,Båtholmsbacken,59.272955,17.882063,1,,
9021001013483000,Isbergavägen,59.280846,17.966649,1,,
9021001013485000,Långbrohallen,59.277935,17.975650,1,,
9021001013487000,Ormkärr,59.260271,18.010969,1,,
9021001013491000,Esplundagränd,59.263044,18.004413,1,,
9021001013493000,Stjärnsundsgatan,59.260746,18.004624,1,,
9021001013495000,Hagsätramotet,59.259753,18.008494,1,,
9021001013502000,Nybodahallen,59.306330,18.021786,1,,
9021001013505000,Majstångsvägen,59.303277,18.007011,1,,
9021001013507000,Vallfartsvägen,59.303538,18.004436,1,,
9021001013509000,Påskvägen,59.303203,17.999278,1,,
9021001013511000,Nyårsvägen,59.302331,17.994788,1,,
9021001013513000,Bokbindarvägen,59.301630,17.990038,1,,
9021001013515000,Valutavägen,59.300426,17.983060,1,,
9021001013517000,Sedelvägen,59.297069,17.983021,1,,
9021001013519000,Hypoteksvägen,59.294364,17.984727,1,,
9021001013521000,Inteckningsvägen,59.292868,17.985614,1,,
9021001013549000,Kärrtorp,59.283698,18.115679,1,,
9021001013551000,Dalens sjukhus,59.288787,18.099965,1,,
9021001013553000,Kärrtorpsgården,59.287006,18.108634,1,,
9021001013555000,Karlsövägen,59.285563,18.110511,1,,
9021001013559000,Åstorpsringen,59.288463,18.101887,1,,
9021001013561000,Skarpnäcks allé,59.266455,18.132629,1,,
9021001013565000,Kyrkogårdsvägen,59.277157,18.110302,1,,
9021001013567000,Pungpinan,59.273165,18.109805,1,,
9021001013569000,Skarpnäcks koloniområde,59.271140,18.111817,1,,
9021001013571000,Vinthundsvägen,59.266168,18.119713,1,,
9021001013577000,Sandåkraskolan,59.260839,18.113620,1,,
9021001013579000,Kokoskakan,59.259946,18.108126,1,,
9021001013581000,Holmögaddsvägen,59.280616,18.117784,1,,
9021001013587000,Horisontvägen,59.265569,18.126486,1,,
9021001013592000,Skarpnäcksparken,59.267598,18.129216,1,,
9021001013594000,Vinggatan,59.268984,18.122919,1,,
9021001013602000,Norra Sköndal,59.261097,18.116926,1,,
9021001013604000,Larsboda trafikplats,59.245287,18.106742,1,,
9021001013605000,Söndagsvägen,59.260147,18.095771,1,,
9021001013607000,Spettekaksvägen,59.259919,18.102474,1,,
9021001013609000,Semmelvägen,59.258966,18.106084,1,,
9021001013611000,Sköndalsskolan,59.256693,18.107076,1,,
9021001013613000,Kubbegatan,59.256254,18.110127,1,,
9021001013615000,Sköndals centrum,59.255877,18.113644,1,,
9021001013617000,Dalbobranten,59.254230,18.115904,1,,
9021001013619000,Stora Sköndal,59.252626,18.118351,1,,
9021001013621000,Diakongränd,59.251209,18.113929,1,,
9021001013624000,Sköndalsbro,59.251348,18.106881,1,,
9021001013627000,Farsta sjukhem,59.247316,18.103955,1,,
9021001013629000,Ågesta broväg,59.242453,18.104700,1,,
9021001013631000,Sunneplan,59.240484,18.101535,1,,
9021001013633000,Kilsgatan,59.238878,18.096905,1,,
9021001013647000,Säfflegatan,59.242082,18.096555,1,,
9021001013652000,Kvarter 35,59.276080,18.097289,1,,
9021001013653000,Kvarter 34,59.275028,18.097342,1,,
9021001013654000,Kvarter 16,59.272228,18.097241,1,,
9021001013655000,Uppståndelsekapellet,59.269075,18.099327,1,,
9021001013656000,Kvarter 25,59.267826,18.101910,1,,
9021001013657000,Kvarter 52,59.268947,18.104546,1,,
9021001013658000,Kvarter 50,59.271106,18.104867,1,,
9021001013659000,Kvarter 22,59.272514,18.105997,1,,
9021001013660000,Kvarter 45,59.274075,18.107576,1,,
9021001013661000,Kvarter 40,59.277199,18.105612,1,,
9021001013662000,Kvarter 43,59.276216,18.108423,1,,
9021001013663000,Ekebergabacken,59.249031,18.100873,1,,
9021001013701000,Larsboda skola,59.239293,18.105144,1,,
9021001013702000,Filipstadsbacken,59.238348,18.105460,1,,
9021001013706000,Mårbackagatan,59.237171,18.108857,1,,
9021001013707000,Persbergsbacken,59.238380,18.111348,1,,
9021001013709000,Edsvallabacken,59.239954,18.112649,1,,
9021001013711000,Telestaden,59.240998,18.110316,1,,
9021001013713000,Östmarksgatan,59.242589,18.102377,1,,
9021001013715000,Torsbygatan,59.244270,18.099738,1,,
9021001013717000,Färnebogatan,59.245210,18.096231,1,,
9021001013721000,Skrakgränd,59.247338,18.063699,1,,
9021001013723000,Ölmevägen,59.242626,18.086981,1,,
9021001013738000,Arvikagatan,59.241517,18.105924,1,,
9021001013751000,Sockenplan,59.282534,18.071481,1,,
9021001013755000,Idlången,59.292336,18.055409,1,,
9021001013757000,Sävlången,59.293187,18.052183,1,,
9021001013759000,Valla torg,59.294120,18.048304,1,,
9021001013763000,Asplången,59.295121,18.044344,1,,
9021001013769000,Marknadsvägen,59.294897,18.034413,1,,
9021001013801000,Svedmyra T-stn,59.278125,18.068179,1,,
9021001013803000,Skönviksvägen,59.279187,18.061798,1,,
9021001013805000,Bandhagsvägen,59.280032,18.057090,1,,
9021001013807000,Sävenäsgatan,59.279819,18.050697,1,,
9021001013809000,Sågverksgatan,59.278911,18.044371,1,,
9021001013811000,Tystbergavägen,59.279955,18.039888,1,,
9021001013815000,Lindevägen,59.286478,18.079402,1,,
9021001013823000,Johannisdalsgatan,59.289831,17.953926,1,,
9021001013829000,Långbrodalsvägen,59.278519,17.998936,1,,
9021001013831000,Vältstigen,59.280921,17.994388,1,,
9021001013833000,Långbrovägen,59.282296,17.990598,1,,
9021001013835000,Häradsvägen,59.286220,17.951830,1,,
9021001013845000,Västerängsvägen,59.285383,17.976773,1,,
9021001013847000,Långbroparken,59.283356,17.970940,1,,
9021001013851000,Dr Widerströms gata,59.284789,17.956246,1,,
9021001013855000,Eksätravägen,59.290776,17.946636,1,,
9021001013857000,Lilla Sällskapets väg,59.294594,17.944848,1,,
9021001013859000,Ålgrytevägen,59.296552,17.940723,1,,
9021001013861000,Bredäng,59.294889,17.933529,1,,
9021001013863000,Bredängs allé,59.292050,17.931795,1,,
9021001013864000,Murmästarvägen,59.286441,17.938255,1,,
9021001013866000,Strömsätravägen,59.285207,17.934089,1,,
9021001013868000,Stensätravägen,59.284928,17.928460,1,,
9021001013871000,Hammarbyhallen,59.290916,18.095781,1,,
9021001013874000,Storsätragränd,59.282708,17.920491,1,,
9021001013877000,Understensvägen,59.288182,18.116617,1,,
9021001013879000,Marievik,59.310343,18.027399,1,,
9021001013881000,Kontrollvägen,59.294174,18.004859,1,,
9021001013883000,Solandergatan,59.297494,18.091347,1,,
9021001013884000,Elektravägen,59.295619,18.012167,1,,
9021001013885000,Sparrmansvägen,59.295204,18.098496,1,,
9021001013886000,Björkhagen,59.290806,18.110243,1,,
9021001013887000,Finn Malmgrens plan,59.295282,18.102911,1,,
9021001013888000,Hammarbyhöjden,59.294802,18.106691,1,,
9021001013903000,Trollesundsvägen,59.259966,18.044884,1,,
9021001013905000,Sjövikstorget,59.307419,18.028688,1,,
9021001013907000,Sjöviksvägen,59.306467,18.031581,1,,
9021001013952000,Hökarängsplan,59.257345,18.080130,1,,
9021001013953000,Kontoristvägen,59.254662,18.075546,1,,
9021001013954000,Hovmästarvägen,59.253358,18.073811,1,,
9021001013956000,Cigarrvägen,59.254316,18.080152,1,,
9021001013957000,Piprensarvägen,59.252905,18.081285,1,,
9021001013958000,Munstycksvägen,59.251902,18.082113,1,,
9021001013959000,Korintvägen,59.252270,18.087257,1,,
9021001013960000,Kumminvägen,59.254693,18.085823,1,,
9021001013961000,Pepparvägen,59.247875,18.089047,1,,
9021001013963000,Hökarängen T,59.257720,18.083220,1,,
9021001013964000,Russinvägen,59.256614,18.088451,1,,
9021001013965000,Russinhöjden,59.255342,18.091338,1,,
9021001013967000,Lingvägens vändplan,59.252467,18.092425,1,,
9021001013968000,Kryddpepparn,59.256135,18.084499,1,,
9021001013970000,Konsolvägen,59.256790,18.077353,1,,
9021001013971000,Hökarängsskolan,59.255493,18.077548,1,,
9021001013972000,Onsdagsvägen,59.259197,18.091666,1,,
9021001013973000,Fredagsvägen,59.258264,18.093147,1,,
9021001013974000,Skönstaholmsvägen,59.256691,18.095304,1,,
9021001013975000,Skönstaholm,59.255259,18.095523,1,,
9021001013977000,Skönstaholmsskolan,59.257588,18.096381,1,,
9021001013978000,Måndagsvägen,59.259411,18.095854,1,,
9021001013979000,Lördagsvägen,59.258305,18.097990,1,,
9021001014003000,Vantörs kyrka,59.264088,18.038568,1,,
9021001014005000,Skebokvarnsvägen,59.264978,18.035423,1,,
9021001014007000,Bedaröbacken,59.266137,18.032703,1,,
9021001014009000,Flensvägen,59.267441,18.031034,1,,
9021001014011000,Helgestavägen,59.271506,18.028545,1,,
9021001014013000,Aspövägen,59.274040,18.026912,1,,
9021001014025000,Anneboda,59.286591,18.026216,1,,
9021001014027000,Ottesångsvägen,59.286480,18.023043,1,,
9021001014029000,Västberga kyrkogårdsväg,59.289615,18.018652,1,,
9021001014032000,Drivhjulsvägen,59.293919,18.014484,1,,
9021001014033000,Västberga gårdsväg,59.291933,18.016748,1,,
9021001014039000,Karusellplan,59.297891,18.011841,1,,
9021001014041000,Svandammsvägen,59.301749,18.018218,1,,
9021001014043000,Götalandsvägen,59.284640,18.029577,1,,
9021001014059000,Fågelsångsvägen,59.314932,18.005497,1,,
9021001014061000,Bryggvägen,59.315198,17.999329,1,,
9021001014063000,Mörtviken,59.314500,17.995228,1,,
9021001014066000,Ekensberg,59.314553,17.988355,1,,
9021001014068000,Trekanten,59.314165,18.018360,1,,
9021001014071000,Fruängsgården,59.282591,17.957081,1,,
9021001014072000,Solfjädern,59.284909,17.956639,1,,
9021001014073000,Nackspegeln,59.287276,17.958456,1,,
9021001014074000,Dr Widerströms gata,59.285452,17.956340,1,,
9021001014075000,Lina Sandells plan,59.284795,17.960230,1,,
9021001014077000,Kata Dalströms gata,59.285452,17.961781,1,,
9021001014078000,Eva Bonniers gata,59.286585,17.960589,1,,
9021001014079000,Fruängstorget,59.285960,17.963001,1,,
9021001014081000,Ellen Keys gata,59.287511,17.965722,1,,
9021001014083000,Städrocken,59.284322,17.969308,1,,
9021001014084000,Agnes Lagerstedts gata,59.286004,17.968029,1,,
9021001014085000,Hjälpmedelscentralen,59.282293,17.970373,1,,
9021001014087000,Elin Wägners gata,59.284668,17.973068,1,,
9021001014089000,Hanna Ryds gata,59.287406,17.972549,1,,
9021001014091000,Bandyvägen,59.292146,17.978046,1,,
9021001014093000,Stadsdelsförvaltningen,59.292649,17.975314,1,,
9021001014095000,Hägerstensåsen (närtrafiken),59.294211,17.975942,1,,
9021001014097000,Skidvägen,59.295186,17.973430,1,,
9021001014099000,Skidtränaren,59.294222,17.973316,1,,
9021001014101000,Stämsvängen,59.293458,17.970143,1,,
9021001014103000,Apoteket,59.293567,17.967622,1,,
9021001014105000,Västertorps centrum,59.292226,17.968362,1,,
9021001014107000,Stöttingsgränd,59.291046,17.962626,1,,
9021001014109000,Terrängvägen,59.292535,17.962720,1,,
9021001014111000,Störtloppsvägen,59.294074,17.966048,1,,
9021001014113000,Telemarksgränd,59.295902,17.971957,1,,
9021001014115000,Stavgränd,59.296740,17.974468,1,,
9021001014117000,Avgiftsvägen,59.300032,17.977645,1,,
9021001014119000,Hodellvägen,59.302220,17.979953,1,,
9021001014122000,Stjernströms väg,59.302908,17.980199,1,,
9021001014123000,Gösta Ekmans väg,59.303122,17.984058,1,,
9021001014131000,Liljeholmen,59.310635,18.023842,1,,
9021001014144000,Liljeholmen,59.311186,18.024701,1,,
9021001015303000,Nockeby,59.329163,17.917053,1,,
9021001015305000,Brostugan,59.325898,17.903064,1,,
9021001015307000,Drottningholm,59.323743,17.889711,1,,
9021001015309000,Orangeriet,59.326574,17.877808,1,,
9021001015311000,Kanton,59.320266,17.866770,1,,
9021001015313000,Lovö Edeby,59.310247,17.860811,1,,
9021001015315000,Tillflykten,59.302570,17.854894,1,,
9021001015317000,Lindö lada,59.296501,17.845188,1,,
9021001015319000,Malmvik,59.293257,17.824601,1,,
9021001015321000,Färentunavägen,59.293992,17.813826,1,,
9021001015323000,Tappström,59.291405,17.809057,1,,
9021001015325000,Ekebyhov,59.288923,17.806083,1,,
9021001015327000,Ekvägen,59.287193,17.802188,1,,
9021001015329000,Närlundavägen,59.284645,17.792371,1,,
9021001015331000,Träkvista idrottsplats,59.279861,17.790179,1,,
9021001015333000,Träkvista,59.275769,17.784718,1,,
9021001015335000,Cafévägen,59.273313,17.788827,1,,
9021001015337000,Sandviksvägen,59.272702,17.792992,1,,
9021001015339000,Brommaplan,59.338211,17.938107,1,,
9021001015341000,Lundhagen,59.272105,17.799436,1,,
9021001015344000,Ekerö centrum,59.290194,17.809965,1,,
9021001015345000,Ekgården,59.288509,17.799231,1,,
9021001015347000,Trädgårdsvägen,59.291227,17.797635,1,,
9021001015349000,Närlundastugan,59.293113,17.791162,1,,
9021001015352000,Jungfrusund,59.271422,17.844995,1,,
9021001015353000,Bergsvägen,59.290866,17.788636,1,,
9021001015355000,Tranholmsvägen,59.288945,17.789498,1,,
9021001015357000,Oxberget,59.286009,17.790073,1,,
9021001015359000,Vattentornet,59.277320,17.794576,1,,
9021001015361000,Klövervägen,59.278479,17.805645,1,,
9021001015364000,Knalleborg,59.277792,17.811807,1,,
9021001015365000,Vipphavrevägen,59.278568,17.802651,1,,
9021001015368000,Centrumslingan,59.289793,17.810512,1,,
9021001015371000,Brandstationen,59.288832,17.812975,1,,
9021001015373000,Fredrikstrandsvägen,59.287154,17.817570,1,,
9021001015375000,Brygga gård,59.285241,17.828578,1,,
9021001015377000,Brygga industri,59.285352,17.828486,1,,
9021001015379000,Trädgården,59.285174,17.826518,1,,
9021001015381000,Ekebyhovsbacken,59.281101,17.834980,1,,
9021001015383000,Herredagsvägen,59.276798,17.841707,1,,
9021001015405000,Sötvattenslaboratoriet,59.329548,17.870754,1,,
9021001015407000,Rörby FRA,59.331732,17.854121,1,,
9021001015409000,Rörby gård,59.331232,17.849962,1,,
9021001015411000,Barkarby,59.328040,17.842214,1,,
9021001015413000,Lovögården,59.323745,17.840956,1,,
9021001015415000,Lovö kyrka,59.321149,17.840836,1,,
9021001015417000,Lovö prästgård,59.321931,17.831993,1,,
9021001015419000,Bostäderna,59.322242,17.825854,1,,
9021001015421000,Prästviken,59.326024,17.808587,1,,
9021001015424000,Strömdal,59.328667,17.808971,1,,
9021001015427000,Dammtorp,59.330949,17.862501,1,,
9021001015431000,Bergviksvägen,59.296436,17.670827,1,,
9021001015438000,Skytteholm,59.318406,17.665787,1,,
9021001015447000,Flugsnapparvägen,59.287660,17.766985,1,,
9021001015449000,Plantskolan,59.279618,17.783434,1,,
9021001015455000,Kilbergs,59.280237,17.775761,1,,
9021001015457000,Lindkvists hörna,59.284394,17.767131,1,,
9021001015459000,Hedborgs filial,59.285821,17.770486,1,,
9021001015462000,Älvnäs,59.289100,17.764383,1,,
9021001015463000,Golfbanan,59.320458,17.857571,1,,
9021001015466000,Skolallén,59.320247,17.862118,1,,
9021001015490000,Paris,59.345439,17.631609,1,,
9021001015501000,Hagen,59.271352,17.806061,1,,
9021001015503000,Skärvik,59.270674,17.812792,1,,
9021001015509000,Jungfrusunds varv,59.274926,17.845112,1,,
9021001015511000,Bokvägen,59.277051,17.843652,1,,
9021001015514000,Gällstaö,59.279346,17.846416,1,,
9021001015516000,Parksidan,59.281393,17.848166,1,,
9021001015518000,Sandudden,59.272145,17.779408,1,,
9021001015520000,Sanduddens vägskäl,59.274780,17.780648,1,,
9021001015522000,Norrängsvägen,59.384128,17.515752,1,,
9021001015524000,Granskog,59.409615,17.559278,1,,
9021001015525000,Hagalund,59.378362,17.480894,1,,
9021001015529000,Ekerö kyrkväg,59.281826,17.747093,1,,
9021001015533000,Ekerö prästgård,59.284681,17.726458,1,,
9021001015535000,Nyckelby,59.287694,17.716479,1,,
9021001015537000,Älby,59.282469,17.715133,1,,
9021001015539000,Luruddsvägen,59.277466,17.706650,1,,
9021001015541000,Fornbyvägen,59.276171,17.701876,1,,
9021001015543000,Nytorp,59.276781,17.690173,1,,
9021001015545000,Kaggens täppa,59.277080,17.684356,1,,
9021001015547000,Helgö bol,59.278022,17.680048,1,,
9021001015549000,Slottshagen,59.280151,17.671261,1,,
9021001015551000,Kaggeholms gård,59.281833,17.667229,1,,
9021001015554000,Kaggeholms slott,59.282855,17.664197,1,,
9021001015555000,Allévägen,59.279247,17.747491,1,,
9021001015557000,Kilsvägen,59.277728,17.742075,1,,
9021001015560000,Alléplan,59.276741,17.737584,1,,
9021001015562000,Ekerö kyrka,59.273619,17.748881,1,,
9021001015563000,Norrby,59.404298,17.558722,1,,
9021001015566000,Sandvik,59.418291,17.555693,1,,
9021001015568000,Sluts hage,59.421692,17.557411,1,,
9021001015569000,Kyrkan,59.400612,17.561476,1,,
9021001015571000,Hembygdsgården,59.361497,17.529140,1,,
9021001015573000,Tallbacken,59.395313,17.492073,1,,
9021001015575000,Lilla Karlslund,59.359305,17.512365,1,,
9021001015577000,Marielundsvägen,59.383560,17.521533,1,,
9021001015578000,Stenstorpsvägen,59.382332,17.523651,1,,
9021001015579000,Källtorp,59.390176,17.502247,1,,
9021001015580000,Adelsö gård,59.379477,17.525996,1,,
9021001015582000,Stenby gård,59.373196,17.530455,1,,
9021001015583000,Nyckelby gård,59.289352,17.704005,1,,
9021001015585000,Stavsund,59.293360,17.684604,1,,
9021001015589000,Rastaholm,59.299365,17.656530,1,,
9021001015591000,Rastaborg,59.302274,17.652369,1,,
9021001015593000,Lönnviksvägen,59.307210,17.642390,1,,
9021001015595000,Rastavägen,59.310995,17.638863,1,,
9021001015597000,Slinkbacka,59.320488,17.631952,1,,
9021001015599000,Menhammar,59.326130,17.633684,1,,
9021001015601000,Kärsö gård,59.341988,17.636753,1,,
9021001015603000,Gräsbacka,59.348894,17.625416,1,,
9021001015605000,Kärsösund,59.353229,17.624241,1,,
9021001015607000,Ekebyvägen,59.359423,17.620827,1,,
9021001015609000,Husby,59.365405,17.613547,1,,
9021001015611000,Granhammar,59.374411,17.600813,1,,
9021001015613000,Sättra,59.379804,17.589273,1,,
9021001015615000,Marieberg,59.380408,17.586753,1,,
9021001015617000,Farmen,59.384808,17.580463,1,,
9021001015619000,Söderby,59.387288,17.578023,1,,
9021001015621000,Munsö skola,59.398668,17.557939,1,,
9021001015623000,Munsö kyrka,59.398610,17.564388,1,,
9021001015625000,Väsby,59.398077,17.551957,1,,
9021001015627000,Sjöängen,59.391490,17.536278,1,,
9021001015634000,Stora Dalby,59.392930,17.493090,1,,
9021001015635000,Nybygget,59.416529,17.555214,1,,
9021001015636000,Kunsta,59.399088,17.493493,1,,
9021001015637000,Sluts brygga,59.425365,17.557504,1,,
9021001015638000,Sättravägen,59.405770,17.470329,1,,
9021001015639000,Fridhem,59.399020,17.564647,1,,
9021001015640000,Tofta,59.386295,17.473894,1,,
9021001015641000,Kärsödrag,59.334287,17.641672,1,,
9021001015642000,Hanmora,59.372955,17.479681,1,,
9021001015643000,Vibohär,59.370852,17.606264,1,,
9021001015644000,Hanholmen,59.367478,17.479734,1,,
9021001015645000,Stenkulla,59.395637,17.544059,1,,
9021001015646000,Portugal,59.363633,17.500751,1,,
9021001015648000,Hallstavägen,59.360113,17.505944,1,,
9021001015650000,Lindbyvägen,59.357509,17.525301,1,,
9021001015652000,Adelsö kyrka,59.359552,17.529894,1,,
9021001015663000,Grindstugan,59.368979,17.530249,1,,
9021001015665000,Gredby,59.354289,17.523799,1,,
9021001015667000,Almlunda,59.349508,17.522880,1,,
9021001015670000,Lindby,59.344631,17.527398,1,,
9021001015672000,Svanhagen,59.324536,17.747877,1,,
9021001015673000,Söderberga,59.320364,17.743730,1,,
9021001015675000,Eneby,59.314830,17.743934,1,,
9021001015677000,Skå Säby,59.313539,17.737467,1,,
9021001015679000,Skogbyvägen,59.313287,17.728724,1,,
9021001015681000,Tureholm,59.314690,17.722445,1,,
9021001015683000,Höglunda,59.315462,17.719432,1,,
9021001015685000,Eriksberg,59.318836,17.706711,1,,
9021001015687000,Lillängsvägen,59.318517,17.742079,1,,
9021001015689000,Mariebergsbacken,59.316276,17.715956,1,,
9021001015691000,Strandhem,59.318334,17.710951,1,,
9021001015693000,Mälby,59.348065,17.517516,1,,
9021001015694000,Lindby brygga vägskäl,59.343158,17.523843,1,,
9021001015695000,Adelsö färjeläge,59.384608,17.525666,1,,
9021001015696000,Källvreten,59.342138,17.517622,1,,
9021001015698000,Alviken,59.344868,17.511449,1,,
9021001015699000,Norrskog,59.379222,17.742794,1,,
9021001015702000,Vändplanen,59.319053,17.703798,1,,
9021001015703000,Betlehem,59.300292,17.809866,1,,
9021001015705000,Lullehov,59.302493,17.787312,1,,
9021001015707000,Hammargården,59.308775,17.776022,1,,
9021001015709000,Troxhammar,59.315198,17.771557,1,,
9021001015711000,Mörbyvägen,59.321484,17.763452,1,,
9021001015713000,Ekeberga,59.323129,17.753451,1,,
9021001015717000,Skå kyrka,59.331672,17.745929,1,,
9021001015719000,Skå Edeby,59.342313,17.762427,1,,
9021001015721000,Björkbacken,59.346474,17.764266,1,,
9021001015723000,Kumla,59.348431,17.762184,1,,
9021001015725000,Parkvillorna,59.359080,17.736915,1,,
9021001015727000,Färjestadsvägen,59.361770,17.735591,1,,
9021001015729000,Kungsgården,59.367534,17.745646,1,,
9021001015731000,Logdalen,59.385901,17.740499,1,,
9021001015733000,Ricksättra,59.387469,17.737975,1,,
9021001015735000,Hillersjönäs,59.388837,17.731390,1,,
9021001015737000,Fritiden,59.389971,17.727553,1,,
9021001015739000,Lindby brygga,59.339143,17.534379,1,,
9021001015740000,Norrudden,59.390704,17.719174,1,,
9021001015741000,Skå flygfält,59.347793,17.750189,1,,
9021001015743000,Kommunalhuset,59.291336,17.806917,1,,
9021001015745000,Svartsjö slott,59.363428,17.728561,1,,
9021001015747000,Hammarlotten,59.364579,17.719961,1,,
9021001015749000,Höghammar,59.370177,17.709749,1,,
9021001015751000,Stugvägen,59.374136,17.702957,1,,
9021001015753000,Hillesberg,59.375328,17.696701,1,,
9021001015755000,Björkliden,59.381919,17.687978,1,,
9021001015757000,Skogsbo,59.384091,17.694214,1,,
9021001015760000,Igelviken,59.362402,17.719053,1,,
9021001015762000,Hilleshög kyrka,59.389871,17.703689,1,,
9021001015765000,Kvarsta,59.388581,17.677065,1,,
9021001015767000,Högby,59.391166,17.663617,1,,
9021001015769000,Färentuna kyrka,59.392169,17.655267,1,,
9021001015771000,Enby,59.394391,17.646083,1,,
9021001015773000,Björksäter,59.392645,17.640972,1,,
9021001015775000,Stavsborgs gård,59.391761,17.633531,1,,
9021001015777000,Stavsborgs fabrik,59.393960,17.627179,1,,
9021001015779000,Stavsborgs torg,59.398064,17.626528,1,,
9021001015781000,Kungsberga torg,59.405914,17.629221,1,,
9021001015784000,Kungsberga Konsum,59.404720,17.632060,1,,
9021001015785000,Tullen,59.408332,17.629959,1,,
9021001015788000,Jäsängen,59.415878,17.625466,1,,
9021001015790000,Skå industriområde,59.338181,17.733593,1,,
9021001015792000,Tuna,59.333331,17.746664,1,,
9021001015803000,Törnby,59.326253,17.728103,1,,
9021001015805000,Rosenborg,59.325316,17.713777,1,,
9021001015807000,Västeräng,59.328622,17.709814,1,,
9021001015809000,Eknäs,59.331384,17.699236,1,,
9021001015811000,Stenhamra centrum,59.335056,17.686897,1,,
9021001015813000,Fårhagsplan,59.336171,17.688663,1,,
9021001015815000,Fårhagen,59.339342,17.692553,1,,
9021001015818000,Solbacka,59.340855,17.695672,1,,
9021001015821000,Sockarby,59.343077,17.704998,1,,
9021001015823000,Karlslund,59.346083,17.710361,1,,
9021001015825000,Sundby by,59.351427,17.712963,1,,
9021001015831000,Sjöängen,59.391355,17.536058,1,,
9021001015832000,Adelsö,59.384721,17.526053,1,,
9021001015835000,Sånga kyrka,59.357778,17.707604,1,,
9021001015837000,Annehill,59.358613,17.695542,1,,
9021001015839000,Torslunda,59.356961,17.688724,1,,
9021001015841000,Gatan,59.357476,17.674411,1,,
9021001015843000,Alby,59.359819,17.661552,1,,
9021001015845000,Säby gård,59.365221,17.653545,1,,
9021001015847000,Sånga Säby,59.367938,17.649999,1,,
9021001015849000,Nora bruk,59.372673,17.644705,1,,
9021001015851000,Långskärsvägen,59.375264,17.646244,1,,
9021001015853000,Nora gård,59.380237,17.648863,1,,
9021001015855000,Färentuna prästgård,59.388396,17.652562,1,,
9021001015857000,Ilända gärde,59.412068,17.668429,1,,
9021001015859000,Färentuna skola,59.394093,17.655107,1,,
9021001015861000,Röbacka,59.396476,17.654216,1,,
9021001015863000,Lyckås,59.398459,17.656182,1,,
9021001015865000,"Folkets hus, Ölsta",59.403318,17.656728,1,,
9021001015867000,Johannelund,59.407037,17.660083,1,,
9021001015869000,Karlskär,59.413954,17.663623,1,,
9021001015871000,Ilända Konsum,59.409163,17.672176,1,,
9021001015875000,Björkberga,59.412207,17.677522,1,,
9021001015877000,Ekbacken,59.413926,17.682514,1,,
9021001015879000,Kronhagen,59.410814,17.691633,1,,
9021001015881000,Ängsgården,59.408011,17.697289,1,,
9021001015883000,Ventholmens gård,59.407045,17.707564,1,,
9021001015886000,Björkvik,59.404838,17.731052,1,,
9021001015887000,Östergården,59.407184,17.713728,1,,
9021001015889000,Signesberg,59.353359,17.715568,1,,
9021001015893000,Kungsberga,59.404461,17.638371,1,,
9021001015895000,Storgärdet,59.400441,17.646535,1,,
